plant_code,plant_name,utility_na,utility_id,sector_nam,city,county,statename,zip,street_add,primsource,install_mw,total_mw,solar_mw,source_des,tech_desc,source,period,latitude,longitude,WKT,
10029,General Electric Aircraft Engines,General Electric Aircraft Engines,7049,Industrial Non-CHP,Lynn,Essex,Massachusetts,1910,1000 Western Avenue,solar,2.1,2.1,2.1,Solar = 2.1 MW,Solar Photovoltaic,"EIA-860, EIA-860M and EIA-923",202108,42.45,-70.9739,POINT Z (-70.9739 42.450000000000074 0),Massachusetts
10437,Sunray 2,"Sunray Energy 2, LLC",60246,IPP Non-CHP,Daggett,San Bernardino,California,92327,35100 Santa Fe Street,solar,20,20,20,Solar = 20 MW,Solar Photovoltaic,"EIA-860, EIA-860M and EIA-923",202108,34.863356,-116.827627,POINT Z (-116.82762700000005 34.863356000000074 0),California
10438,Sunray 3,Sunray Energy 3 LLC,60247,IPP Non-CHP,Daggett,San Bernardino,California,92327,35100 Santa Fe St,solar,13.8,13.8,13.8,Solar = 13.8 MW,Solar Photovoltaic,"EIA-860, EIA-860M and EIA-923",202108,34.863356,-116.827627,POINT Z (-116.82762700000005 34.863356000000074 0),Arizona
10444,SEGS VIII,Terra-Gen Operating Co-Solar,61950,IPP Non-CHP,Hinkley,San Bernardino,California,92347,43880 Harper Lake Road,solar,92,80,80,Solar = 80 MW,Solar Thermal without Energy Storage,"EIA-860, EIA-860M and EIA-923",202108,35.0308,-117.3563,POINT Z (-117.35630000000009 35.03080000000018 0),Nevada
10446,SEGS IX,Terra-Gen Operating Co-Solar,61950,IPP Non-CHP,Hinkley,San Bernardino,California,92347,43880 Harper Lake Road,solar,92,88,88,Solar = 88 MW,Solar Thermal without Energy Storage,"EIA-860, EIA-860M and EIA-923",202108,35.033,-117.338,POINT Z (-117.33800000000005 35.0330000000001 0),Colorado
56228,Prescott Airport,Arizona Public Service Co,803,Electric Utility,Prescott,Yavapai,Arizona,86301,Melville Road,solar,3,3,3,Solar = 3 MW,Solar Photovoltaic,"EIA-860, EIA-860M and EIA-923",202108,34.6584,-112.4008,POINT Z (-112.40080000000005 34.6584000000001 0),Hawaii
56405,Nevada Solar One,Acciona Solar Power,55744,IPP Non-CHP,Boulder City,Clark,Nevada,89005,602 Eldorado Valley Dr,solar,75.7,68.5,68.5,Solar = 68.5 MW,Solar Thermal without Energy Storage,"EIA-860, EIA-860M and EIA-923",202108,35.799798,-114.98173,POINT Z (-114.98173000000006 35.7997980000001 0),New Jersey
56481,SunE Alamosa,SunE Alamosa1 LLC,54902,IPP Non-CHP,Hooper,Alamosa,Colorado,81136,8900 Lane 8N,solar,8.2,7.7,7.7,Solar = 7.7 MW,Solar Photovoltaic,"EIA-860, EIA-860M and EIA-923",202108,37.690304,-105.880501,POINT Z (-105.88050100000005 37.69030400000003 0),North Carolina
56568,Nellis Air Force Base Solar Array,Solar Star NAFB LLC,56203,Commercial Non-CHP,Las Vegas,Clark,Nevada,89191,North Las Vegas Blvd,solar,14,14,14,Solar = 14 MW,Solar Photovoltaic,"EIA-860, EIA-860M and EIA-923",202108,36.260278,-115.0544,POINT Z (-115.05440000000007 36.26027800000005 0),Florida
56667,Lanai Solar-Electric Plant,Lanai Sustainability Research LLC,55910,IPP Non-CHP,Lanai City,Maui,Hawaii,96763,Manele Road & Kaumalapau Hwy,solar,1.2,1.2,1.2,Solar = 1.2 MW,Solar Photovoltaic,"EIA-860, EIA-860M and EIA-923",202108,20.7667,-156.9233,POINT Z (-156.9233000000001 20.766700000000043 0),Pennsylvania
56768,CalRenew-1,CalRenew-1 LLC,55961,IPP Non-CHP,Mendota,Fresno,California,93640,450 Belmont Avenue,solar,5,5,5,Solar = 5 MW,Solar Photovoltaic,"EIA-860, EIA-860M and EIA-923",202108,36.7575,-120.3658,POINT Z (-120.36580000000012 36.75750000000015 0),Illinois
56812,Solana Generating Station,Arizona Solar One LLC,56023,IPP Non-CHP,Gila Bend,Maricopa,Arizona,85337,57750 S. Painted Rock Dam Road,solar,280,295.6,295.6,Solar = 295.6 MW,Solar Thermal with Energy Storage,"EIA-860, EIA-860M and EIA-923",202108,32.922294,-112.95594,POINT Z (-112.95594000000004 32.92229400000021 0),Texas
56813,CSU Fresno Solar Project,MMA Fresno Power LP,56028,IPP Non-CHP,Fresno,Fresno,California,93740,5241 North Maple Ave.,solar,1,1,1,Solar = 1 MW,Solar Photovoltaic,"EIA-860, EIA-860M and EIA-923",202108,36.809841,-119.741665,POINT Z (-119.7416650000001 36.80984100000012 0),Ohio
56814,ELACC Photovoltaic Power Facility,MMA LA Power LP,56027,IPP Non-CHP,Los Angeles,Los Angeles,California,91754,1301 Avenida Cesar Chavez,solar,1,0.8,0.8,Solar = 0.8 MW,Solar Photovoltaic,"EIA-860, EIA-860M and EIA-923",202108,34.040278,-118.148056,POINT Z (-118.14805600000007 34.0402780000001 0),New Mexico
56815,Denver Int Airport,MMA DAS Power,56026,IPP Non-CHP,Denver,Denver,Colorado,80249,8500 Pena Blvd,solar,1.9,1.9,1.9,Solar = 1.9 MW,Solar Photovoltaic,"EIA-860, EIA-860M and EIA-923",202108,39.836789,-104.697149,POINT Z (-104.69714900000008 39.836789000000124 0),Massachusetts
56862,Bolthouse S&P and Rowen Farms Solar,MMA WBF Power LP,56105,IPP Non-CHP,Palmdale,Los Angeles,California,93591,24476 E Ave R-8,solar,1.2,1.2,1.2,Solar = 1.2 MW,Solar Photovoltaic,"EIA-860, EIA-860M and EIA-923",202108,34.5644,-117.6933,POINT Z (-117.6933000000001 34.56440000000013 0),Delaware
56875,Sacramento Soleil LLC,"EDF Renewable Asset Holdings, Inc.",57170,IPP Non-CHP,Wilton,Sacramento,California,95693,13345 Apple Rd,solar,1,1,1,Solar = 1 MW,Solar Photovoltaic,"EIA-860, EIA-860M and EIA-923",202108,38.44979,-121.16469,POINT Z (-121.16469000000008 38.44979000000009 0),Oregon
56877,Hall's Warehouse Solar Project,"Sunlight General Solar Fund II, LLC",59100,IPP Non-CHP,South Plainfield,Middlesex,New Jersey,7080,501 Kentile Rd,solar,1.6,1.6,1.6,Solar = 1.6 MW,Solar Photovoltaic,"EIA-860, EIA-860M and EIA-923",202108,40.573708,-74.394414,POINT Z (-74.39441400000004 40.573708000000146 0),Vermont
56883,Pennsauken Solar,EPP Renewable Energy,57249,IPP Non-CHP,Pennsauken,Camden,New Jersey,8110,9600 River Road,solar,3.9,3.9,3.9,Solar = 3.9 MW,Solar Photovoltaic,"EIA-860, EIA-860M and EIA-923",202108,39.9894,-75.04,POINT Z (-75.04 39.98940000000014 0),New York
56888,Warren County Solar,EPP Renewable Energy,57249,IPP Non-CHP,Belvidere,Warren,New Jersey,8865,3263 Belvidere Road,solar,2,2,2,Solar = 2 MW,Solar Photovoltaic,"EIA-860, EIA-860M and EIA-923",202108,40.788957,-75.10697,POINT Z (-75.10697 40.78895700000008 0),Maryland
56889,PPL Renewable Energy Merck Solar,EPP Renewable Energy,57249,IPP Non-CHP,Summit,Union,New Jersey,7901,556 Morris Avenue,solar,1.7,1.7,1.7,Solar = 1.7 MW,Solar Photovoltaic,"EIA-860, EIA-860M and EIA-923",202108,40.727386,-74.3783,POINT Z (-74.37830000000004 40.72738600000017 0),Utah
56900,Atlantic City Convention Center,"Constellation Solar New Jersey, LLC",57044,Commercial Non-CHP,Atlantic City,Atlantic,New Jersey,8401,1 Convention Boulevard,solar,2,2,2,Solar = 2 MW,Solar Photovoltaic,"EIA-860, EIA-860M and EIA-923",202108,39.3639,-74.4408,POINT Z (-74.44080000000004 39.36390000000012 0),Georgia
56909,Gap Pacific Distribution Center,Goldman Sachs Renewable Power Group,61944,Commercial Non-CHP,Fresno,Fresno,California,93727,3400 Gap Drive,solar,1.2,1.2,1.2,Solar = 1.2 MW,Solar Photovoltaic,"EIA-860, EIA-860M and EIA-923",202108,36.7839,-119.7094,POINT Z (-119.70940000000004 36.78390000000011 0),Minnesota
56915,SAS Solar Farm,SAS Institute Inc,56128,IPP Non-CHP,Cary,Wake,North Carolina,27513,2401 Trenton Rd,solar,2,2,2,Solar = 2 MW,Solar Photovoltaic,"EIA-860, EIA-860M and EIA-923",202108,35.8136,-78.7503,POINT Z (-78.75030000000008 35.81360000000016 0),Indiana
56917,"Imperial Valley Solar, LLC","Imperial Valley Solar, LLC",56167,IPP Non-CHP,Calexico,Imperial,California,92231,251 Ferrell Rd,solar,199.9,199.9,199.9,Solar = 199.9 MW,Solar Photovoltaic,"EIA-860, EIA-860M and EIA-923",202108,32.671099,-115.587265,POINT Z (-115.58726500000002 32.67109900000009 0),Rhode Island
56922,WWRF Solar Plant,SunE U6 Holdings LLC,56431,IPP Non-CHP,Rifle,Garfield,Colorado,81650,2515 W. Centennial Parkway,solar,1.5,1.3,1.3,Solar = 1.3 MW,Solar Photovoltaic,"EIA-860, EIA-860M and EIA-923",202108,39.522904,-107.81341,POINT Z (-107.8134100000001 39.522904000000125 0),Tennessee
56929,DeSoto Next Generation Solar Energy,Florida Power & Light Co,6452,Electric Utility,Arcadia,DeSoto,Florida,34265,4051 NE Karson St,solar,25,25,25,Solar = 25 MW,Solar Photovoltaic,"EIA-860, EIA-860M and EIA-923",202108,27.3232,-81.8019,POINT Z (-81.80190000000007 27.323200000000167 0),Connecticut
56930,Space Coast Next Gen Solar Energy,Florida Power & Light Co,6452,Electric Utility,Merritt Island,Brevard,Florida,32927,7081 N. Courtenay Pkwy,solar,10,10,10,Solar = 10 MW,Solar Photovoltaic,"EIA-860, EIA-860M and EIA-923",202108,28.4586,-80.6811,POINT Z (-80.68110000000003 28.45860000000014 0),South Carolina
56938,SunEdison LV Sutton Plant Site,SunE NC Progress 1 LLC,56183,IPP Non-CHP,Wilmington,New Hanover,North Carolina,28401,801 Sutton Steam Plant Road,solar,1.2,1.2,1.2,Solar = 1.2 MW,Solar Photovoltaic,"EIA-860, EIA-860M and EIA-923",202108,34.2867,-77.9814,POINT Z (-77.9814 34.2867000000001 0),Missouri
56939,Solar Blythe LLC,NRG Solar Blythe,59399,IPP Non-CHP,Blythe,Riverside,California,92225,Blythe Way and Mesa Dr.,solar,21,21,21,Solar = 21 MW,Solar Photovoltaic,"EIA-860, EIA-860M and EIA-923",202108,33.5917,-114.7444,POINT Z (-114.74440000000007 33.591700000000145 0),Kansas
56944,CM10,Consolidated Edison Development Inc.,56769,IPP Non-CHP,Boulder City,Clark,Nevada,89005,751 El Dorado Valley Dr.,solar,10,10,10,Solar = 10 MW,Solar Photovoltaic,"EIA-860, EIA-860M and EIA-923",202108,35.7881,-114.9933,POINT Z (-114.9933000000001 35.788100000000085 0),Virginia
56966,QVC Inc,QVC Inc,56237,IPP Non-CHP,Rocky Mount,Edgecombe,North Carolina,27801,100 QVC Blvd,solar,3.9,3.9,3.9,Solar = 3.9 MW,Solar Photovoltaic,"EIA-860, EIA-860M and EIA-923",202108,35.9222,-77.6731,POINT Z (-77.67310000000002 35.92220000000004 0),Idaho
56993,MF Mesa Lane LLC,MF Mesa Lane LLC,56284,IPP Non-CHP,Morrisville,Bucks,Pennsylvania,19067,1121 Bordentown Rd,solar,3,3,3,Solar = 3 MW,Solar Photovoltaic,"EIA-860, EIA-860M and EIA-923",202108,40.1483,-74.7772,POINT Z (-74.7772 40.14830000000011 0),Nebraska
56996,Solar Photovoltaic Project #02,Southern California Edison Co,17609,Electric Utility,Chino,San Bernardino,California,91710,14701 Yorba Ave.,solar,1,1,1,Solar = 1 MW,Solar Photovoltaic,"EIA-860, EIA-860M and EIA-923",202108,33.985244,-117.700826,POINT Z (-117.70082600000003 33.9852440000001 0),Wisconsin
57004,SunEdison Walgreens Moreno Valley,SunE WG113 Moreno Valley LLC,56294,IPP Non-CHP,Moreno Valley,Riverside,California,92551,17500 Perris Blvd,solar,1,0.9,0.9,Solar = 0.9 MW,Solar Photovoltaic,"EIA-860, EIA-860M and EIA-923",202108,33.8672,-117.23,POINT Z (-117.23000000000008 33.86720000000006 0),Michigan
57005,Mariani Packing Vacaville Solar,SunE U6 Holdings LLC,56431,IPP Non-CHP,Vacaville,Solano,California,95688,500 Crocker Dr.,solar,1,0.9,0.9,Solar = 0.9 MW,Solar Photovoltaic,"EIA-860, EIA-860M and EIA-923",202108,38.40008,-121.96366,POINT Z (-121.96366000000006 38.400080000000116 0),Arkansas
57006,Walgreens Woodland Distribution Center,SunE WG45 Woodland LLC,56296,IPP Non-CHP,Woodland,Yolo,California,95776,2370 East Main Street,solar,1,0.9,0.9,Solar = 0.9 MW,Solar Photovoltaic,"EIA-860, EIA-860M and EIA-923",202108,38.674894,-121.713362,POINT Z (-121.71336200000007 38.67489400000015 0),Alabama
57007,SunEdison Ironwood State Prison,SunE CPA CDC2 LLC,56297,IPP Non-CHP,Blythe,Riverside,California,92225,19005 Wileys Well Road,solar,1,0.9,0.9,Solar = 0.9 MW,Solar Photovoltaic,"EIA-860, EIA-860M and EIA-923",202108,33.567268,-114.917979,POINT Z (-114.91797900000009 33.567268000000155 0),Mississippi
57008,SunEdison Procter & Gamble Oxnard,SunE U6 Holdings LLC,56431,IPP Non-CHP,Oxnard,Ventura,California,95826,800 N. Rice Ave.,solar,1,0.8,0.8,Solar = 0.8 MW,Solar Photovoltaic,"EIA-860, EIA-860M and EIA-923",202108,34.2089,-119.13,POINT Z (-119.13000000000007 34.208900000000135 0),Maine
57009,Kohls San Bernardino Solar Facility,Longroad Energy Services LLC,61219,IPP Non-CHP,San Bernardino,San Bernardino,California,92408,890 East Mill St,solar,1,0.9,0.9,Solar = 0.9 MW,Solar Photovoltaic,"EIA-860, EIA-860M and EIA-923",202108,34.094695,-117.266831,POINT Z (-117.26683100000011 34.09469500000006 0),South Dakota
57010,SunEdison Anheuser Busch Fairfield,SunE M5 Holdings LLC,56434,IPP Non-CHP,Fairfield,Solano,California,94534,I-80 and Hale Rd.,solar,1,0.9,0.9,Solar = 0.9 MW,Solar Photovoltaic,"EIA-860, EIA-860M and EIA-923",202108,38.232108,-122.092706,POINT Z (-122.09270600000009 38.2321080000001 0),Kentucky
57011,Chuckawalla Valley State Prison,SunE CPA CDC1 LLC,56302,IPP Non-CHP,Blythe,Riverside,California,92225,19025 Wileys Well Road,solar,1,0.9,0.9,Solar = 0.9 MW,Solar Photovoltaic,"EIA-860, EIA-860M and EIA-923",202108,33.565329,-114.903629,POINT Z (-114.9036290000001 33.56532900000013 0),Iowa
57012,SunEdison Walmart Apple Valley DC,SunE M5 Holdings LLC,56434,IPP Non-CHP,Apple Valley,San Bernardino,California,92307,21101 Johnson Rd,solar,1,0.9,0.9,Solar = 0.9 MW,Solar Photovoltaic,"EIA-860, EIA-860M and EIA-923",202108,34.5975,-117.2,POINT Z (-117.20000000000007 34.597500000000124 0),Puerto Rico
57041,Vaca Dixon Solar Station,Pacific Gas & Electric Co.,14328,Electric Utility,Vacaville,Solano,California,95688,5138 Midway Road,solar,2,2,2,Solar = 2 MW,Solar Photovoltaic,"EIA-860, EIA-860M and EIA-923",202108,38.4106,-121.9264,POINT Z (-121.92640000000006 38.4106000000001 0),Montana
57073,Ivanpah 2,NRG Energy Services,57499,IPP Non-CHP,Nipton,San Bernardino,California,92364,100302 Yates Well Road,solar,133.4,133.4,133.4,Solar = 133.4 MW,Solar Thermal without Energy Storage,"EIA-860, EIA-860M and EIA-923",202108,35.556111,-115.468611,POINT Z (-115.46861100000007 35.55611100000011 0),Wyoming
57074,Ivanpah 1,NRG Energy Services,57499,IPP Non-CHP,Nipton,San Bernardino,California,92364,100302 Yates Well Road,solar,126,126,126,Solar = 126 MW,Solar Thermal without Energy Storage,"EIA-860, EIA-860M and EIA-923",202108,35.533056,-115.4525,POINT Z (-115.45250000000007 35.53305600000014 0),Oklahoma
57075,Ivanpah 3,NRG Energy Services,57499,IPP Non-CHP,Nipton,San Bernardino,California,92364,100302 Yates Well Road,solar,133.4,133.4,133.4,Solar = 133.4 MW,Solar Thermal without Energy Storage,"EIA-860, EIA-860M and EIA-923",202108,35.580833,-115.4825,POINT Z (-115.48250000000007 35.58083300000007 0),Louisiana
57081,Calpine Vineland Solar LLC,Calpine Vineland Solar LLC,56610,IPP Non-CHP,Vineland,Cumberland,New Jersey,8360,1776 S. Mill Rd.,solar,4.1,4.1,4.1,Solar = 4.1 MW,Solar Photovoltaic,"EIA-860, EIA-860M and EIA-923",202108,39.4636,-75.0667,POINT Z (-75.06670000000003 39.463600000000106 0),Washington
57141,RV CSU Power LLC,RV CSU Power LLC,56493,Commercial Non-CHP,Fort Collins,Larimer,Colorado,80521,3840 LaPorte Ave.,solar,1.9,1.9,1.9,Solar = 1.9 MW,Solar Photovoltaic,"EIA-860, EIA-860M and EIA-923",202108,40.591099,-105.145904,POINT Z (-105.14590400000007 40.59109900000013 0),District of Columbia
57191,Exelon Solar Chicago,Exelon Power,6035,IPP Non-CHP,Chicago,Cook,Illinois,60643,1201 W 120th St,solar,9,9,9,Solar = 9 MW,Solar Photovoltaic,"EIA-860, EIA-860M and EIA-923",202108,41.6758,-87.6514,POINT Z (-87.65140000000004 41.67580000000011 0),New Hampshire
57197,Blue Wing Solar Energy Generation,TX Solar I LLC,56565,IPP Non-CHP,San Antonio,Bexar,Texas,78223,10810 S Blue Wind Rd.,solar,13.9,13.5,13.5,Solar = 13.5 MW,Solar Photovoltaic,"EIA-860, EIA-860M and EIA-923",202108,29.304177,-98.400339,POINT Z (-98.40033900000006 29.30417700000009 0),
57200,Shelby Solar Energy Generation Facility,Solar Star North Carolina I LLC,56563,IPP Non-CHP,Shelby,Cleveland,North Carolina,28152,830 College Ave,solar,1,1,1,Solar = 1 MW,Solar Photovoltaic,"EIA-860, EIA-860M and EIA-923",202108,35.2536,-81.5956,POINT Z (-81.59560000000009 35.25360000000013 0),
57202,Jacksonville Solar,Jacksonville Solar LLC,56582,IPP Non-CHP,Jacksonville,Duval,Florida,32234,2009 US Highway 301,solar,12.6,12.5,12.5,Solar = 12.5 MW,Solar Photovoltaic,"EIA-860, EIA-860M and EIA-923",202108,30.320748,-81.956377,POINT Z (-81.95637700000006 30.320748000000147 0),
57203,Wyandot Solar Farm,Wyandot Solar LLC,56583,IPP Non-CHP,Upper Sandusky,Wyandot,Ohio,43351,10692 County Highway 44,solar,10,10,10,Solar = 10 MW,Solar Photovoltaic,"EIA-860, EIA-860M and EIA-923",202108,40.8795,-83.317072,POINT Z (-83.31707200000004 40.87950000000011 0),
57204,PSEG Hackettstown,PSEG Solar Hackettstown LLC,56584,IPP Non-CHP,Hackettstown,Warren,New Jersey,7840,700 High Street,solar,2.2,2.2,2.2,Solar = 2.2 MW,Solar Photovoltaic,"EIA-860, EIA-860M and EIA-923",202108,40.860629,-74.822935,POINT Z (-74.82293500000004 40.86062900000018 0),
57205,CM48,Consolidated Edison Development Inc.,56769,IPP Non-CHP,Boulder City,Clark,Nevada,89005,751 El Dorado Valley Drive,solar,48,48,48,Solar = 48 MW,Solar Photovoltaic,"EIA-860, EIA-860M and EIA-923",202108,35.7814,-114.9933,POINT Z (-114.9933000000001 35.781400000000104 0),
57216,Crayola Solar Project,UGI Development Co,19391,IPP Non-CHP,Easton,Northampton,Pennsylvania,18040,1100 Church Lane,solar,2.8,2.8,2.8,Solar = 2.8 MW,Solar Photovoltaic,"EIA-860, EIA-860M and EIA-923",202108,40.760545,-75.238452,POINT Z (-75.23845199999997 40.760545000000135 0),
57217,Solar Photovoltaic Project #03,Southern California Edison Co,17609,Electric Utility,Rialto,San Bernardino,California,92376,1464 Merrill Ave,solar,1,1,1,Solar = 1 MW,Solar Photovoltaic,"EIA-860, EIA-860M and EIA-923",202108,34.094279,-117.400113,POINT Z (-117.4001130000001 34.09427900000007 0),
57219,Solar Photovoltaic Project #05,Southern California Edison Co,17609,Electric Utility,Redlands,San Bernardino,California,92374,1901 California St.,solar,2.5,2.5,2.5,Solar = 2.5 MW,Solar Photovoltaic,"EIA-860, EIA-860M and EIA-923",202108,34.086276,-117.230571,POINT Z (-117.23057100000007 34.08627600000016 0),
57220,Solar Photovoltaic Project #06,Southern California Edison Co,17609,Electric Utility,Ontario,San Bernardino,California,91761,3510 E. Francis St,solar,2,2,2,Solar = 2 MW,Solar Photovoltaic,"EIA-860, EIA-860M and EIA-923",202108,34.041389,-117.573055,POINT Z (-117.57305500000007 34.041389000000045 0),
57221,Solar Photovoltaic Project #07,Southern California Edison Co,17609,Electric Utility,Redlands,San Bernardino,California,92374,2200-2250 Palmetto Ave.,solar,2.5,2.5,2.5,Solar = 2.5 MW,Solar Photovoltaic,"EIA-860, EIA-860M and EIA-923",202108,34.086111,-117.2275,POINT Z (-117.22750000000009 34.08611100000014 0),
57222,Solar Photovoltaic Project #08,Southern California Edison Co,17609,Electric Utility,Ontario,San Bernardino,California,91761,4060 E. Francis St,solar,2,2,2,Solar = 2 MW,Solar Photovoltaic,"EIA-860, EIA-860M and EIA-923",202108,34.041944,-117.565,POINT Z (-117.56500000000003 34.04194400000013 0),
57223,Solar Photovoltaic Project #09,Southern California Edison Co,17609,Electric Utility,Ontario,San Bernardino,California,91761,3550 E. Francis St,solar,1,1,1,Solar = 1 MW,Solar Photovoltaic,"EIA-860, EIA-860M and EIA-923",202108,34.042778,-117.571666,POINT Z (-117.5716660000001 34.04277800000008 0),
57224,Solar Photovoltaic Project #10,Southern California Edison Co,17609,Electric Utility,Fontana,San Bernardino,California,92335,13277 San Bernardino Ave.,solar,1.5,1.5,1.5,Solar = 1.5 MW,Solar Photovoltaic,"EIA-860, EIA-860M and EIA-923",202108,34.075,-117.516944,POINT Z (-117.51694400000007 34.07500000000012 0),
57225,Solar Photovoltaic Project #11,Southern California Edison Co,17609,Electric Utility,Redlands,San Bernardino,California,92374,2501 West San Bernardino,solar,3.5,3.5,3.5,Solar = 3.5 MW,Solar Photovoltaic,"EIA-860, EIA-860M and EIA-923",202108,34.075833,-117.241388,POINT Z (-117.2413880000001 34.075833000000195 0),
57226,Solar Photovoltaic Project #12,Southern California Edison Co,17609,Electric Utility,Ontario,San Bernardino,California,91761,4091 E. Francis St.,solar,0.5,0.5,0.5,Solar = 0.5 MW,Solar Photovoltaic,"EIA-860, EIA-860M and EIA-923",202108,34.042222,-117.561666,POINT Z (-117.56166600000006 34.04222200000016 0),
57227,Solar Photovoltaic Project #13,Southern California Edison Co,17609,Electric Utility,Redlands,San Bernardino,California,92374,1895 Marigold Ave.,solar,3.5,3.5,3.5,Solar = 3.5 MW,Solar Photovoltaic,"EIA-860, EIA-860M and EIA-923",202108,34.083499,-117.23557,POINT Z (-117.23557000000007 34.083499000000124 0),
57229,Solar Photovoltaic Project #15,Southern California Edison Co,17609,Electric Utility,Fontana,San Bernardino,California,92335,13230 San Bernardino Ave.,solar,3.5,3.5,3.5,Solar = 3.5 MW,Solar Photovoltaic,"EIA-860, EIA-860M and EIA-923",202108,34.079167,-117.516666,POINT Z (-117.5166660000001 34.079167000000105 0),
57230,Solar Photovoltaic Project #16,Southern California Edison Co,17609,Electric Utility,Redlands,San Bernardino,California,92374,2290 Palmetto Ave,solar,1.5,1.5,1.5,Solar = 1.5 MW,Solar Photovoltaic,"EIA-860, EIA-860M and EIA-923",202108,34.085556,-117.233611,POINT Z (-117.23361100000002 34.085556000000125 0),
57231,Solar Photovoltaic Project #17,Southern California Edison Co,17609,Electric Utility,Fontana,San Bernardino,California,92335,13550 Valley Blvd.,solar,3.5,3.5,3.5,Solar = 3.5 MW,Solar Photovoltaic,"EIA-860, EIA-860M and EIA-923",202108,34.072778,-117.503333,POINT Z (-117.50333300000008 34.0727780000001 0),
57232,Solar Photovoltaic Project #18,Southern California Edison Co,17609,Electric Utility,Fontana,San Bernardino,California,92335,9415 Kaiser Way,solar,1.5,1.5,1.5,Solar = 1.5 MW,Solar Photovoltaic,"EIA-860, EIA-860M and EIA-923",202108,34.083333,-117.516388,POINT Z (-117.51638800000002 34.08333300000014 0),
57236,Solar Photovoltaic Project #23,Southern California Edison Co,17609,Electric Utility,Fontana,San Bernardino,California,92335,9687 Transportation Way,solar,2.5,2.5,2.5,Solar = 2.5 MW,Solar Photovoltaic,"EIA-860, EIA-860M and EIA-923",202108,34.080833,-117.520277,POINT Z (-117.5202770000001 34.08083300000012 0),
57237,Solar Photovoltaic Project #22,Southern California Edison Co,17609,Electric Utility,Redlands,San Bernardino,California,92374,27223 Pioneer Ave.,solar,2,2,2,Solar = 2 MW,Solar Photovoltaic,"EIA-860, EIA-860M and EIA-923",202108,34.08,-117.2114,POINT Z (-117.2114000000001 34.0800000000001 0),
57243,Cimarron Solar Facility,Southern Power Co,17650,IPP Non-CHP,Springer,Colfax,New Mexico,87747,104 Carbide Road,solar,30.6,30.6,30.6,Solar = 30.6 MW,Solar Photovoltaic,"EIA-860, EIA-860M and EIA-923",202108,36.468078,-104.635659,POINT Z (-104.63565900000005 36.468078000000055 0),
57245,Solar Photovoltaic Project #26,Southern California Edison Co,17609,Electric Utility,Rialto,San Bernardino,California,92376,2510 - 2580 West Walnut Ave.,solar,6,6,6,Solar = 6 MW,Solar Photovoltaic,"EIA-860, EIA-860M and EIA-923",202108,34.131214,-117.425324,POINT Z (-117.42532400000012 34.13121400000016 0),
57246,Solar Photovoltaic Project #27,Southern California Edison Co,17609,Electric Utility,Rialto,San Bernardino,California,92376,1590 North Tamarind Ave.,solar,2,2,2,Solar = 2 MW,Solar Photovoltaic,"EIA-860, EIA-860M and EIA-923",202108,34.131111,-117.421666,POINT Z (-117.42166600000003 34.1311110000001 0),
57247,Solar Photovoltaic Project #28,Southern California Edison Co,17609,Electric Utility,San Bernardino,San Bernardino,California,92408,570 Mill St.,solar,3.5,3.5,3.5,Solar = 3.5 MW,Solar Photovoltaic,"EIA-860, EIA-860M and EIA-923",202108,34.094167,-117.274166,POINT Z (-117.27416600000011 34.09416700000011 0),
57254,Victor Valley CC CPV Solar,Victor Valley Community College District,56618,Commercial Non-CHP,Victorville,San Bernardino,California,92395,18422 Bear Valley Road,solar,1,1,1,Solar = 1 MW,Solar Photovoltaic,"EIA-860, EIA-860M and EIA-923",202108,34.48017,-117.257938,POINT Z (-117.25793800000007 34.4801700000001 0),
57256,PA Solar Park,Consolidated Edison Development Inc.,56769,IPP Non-CHP,Nesquehoning,Carbon,Pennsylvania,18240,109 Forth Hollow Road,solar,10.1,10,10,Solar = 10 MW,Solar Photovoltaic,"EIA-860, EIA-860M and EIA-923",202108,40.860142,-75.852206,POINT Z (-75.85220600000004 40.86014200000012 0),
57265,Dorchester Solar Site,Massachusetts Electric Co,11804,Electric Utility,Dorchester,Suffolk,Massachusetts,2122,220 Victory Rd,solar,1,1.3,1.3,Solar = 1.3 MW,Solar Photovoltaic,"EIA-860, EIA-860M and EIA-923",202108,42.300802,-71.047171,POINT Z (-71.047171 42.300802000000104 0),
57269,Haverhill Solar Power Project,Massachusetts Electric Co,11804,Electric Utility,Haverhill,Essex,Massachusetts,1832,98 Hilldale Ave,solar,1,0.8,0.8,Solar = 0.8 MW,Solar Photovoltaic,"EIA-860, EIA-860M and EIA-923",202108,42.781056,-71.092562,POINT Z (-71.09256200000004 42.781056000000106 0),
57270,NEDC Solar Site,Massachusetts Electric Co,11804,Electric Utility,Whitinsville,Worcester,Massachusetts,1588,1152 Main Street,solar,1,0.8,0.8,Solar = 0.8 MW,Solar Photovoltaic,"EIA-860, EIA-860M and EIA-923",202108,42.105237,-71.702979,POINT Z (-71.70297900000004 42.10523700000013 0),
57275,Crescent Dunes Solar Energy,Tonopah Solar Energy LLC,56641,IPP Non-CHP,Tonopah,Nye,Nevada,89049,Rte 89 from the East,solar,125,110,110,Solar = 110 MW,Solar Thermal with Energy Storage,"EIA-860, EIA-860M and EIA-923",202108,38.238889,-117.36361,POINT Z (-117.36361000000007 38.238889000000114 0),
57280,Aqua Ingrams Mill,Aqua America Inc,56645,IPP Non-CHP,West Chester,Chester,Pennsylvania,19380,780 N Creek Road,solar,1,0.9,0.9,Solar = 0.9 MW,Solar Photovoltaic,"EIA-860, EIA-860M and EIA-923",202108,39.9647,-75.6578,POINT Z (-75.65780000000002 39.96470000000007 0),
57295,Alpine Solar,NRG Solar Alpine,59397,IPP Non-CHP,Lancaster,Los Angeles,California,93536,21125 West Avenue C,solar,66,66,66,Solar = 66 MW,Solar Photovoltaic,"EIA-860, EIA-860M and EIA-923",202108,34.7892,-118.5047,POINT Z (-118.50470000000008 34.78920000000017 0),
57305,Adelanto Solar Project,Los Angeles Department of Water & Power,11208,Electric Utility,Adelanto,San Bernardino,California,92301,16800 Aster Road,solar,10,10,10,Solar = 10 MW,Solar Photovoltaic,"EIA-860, EIA-860M and EIA-923",202108,34.550833,-117.435277,POINT Z (-117.43527700000008 34.550833000000125 0),
57306,Pine Tree Solar Project,Los Angeles Department of Water & Power,11208,Electric Utility,Owenyo,Kern,California,93518,22500 Jawbone Canyon Rd,solar,8.5,8.5,8.5,Solar = 8.5 MW,Solar Photovoltaic,"EIA-860, EIA-860M and EIA-923",202108,35.229635,-118.1957,POINT Z (-118.19570000000009 35.22963500000009 0),
57308,Maclay Solar Project,Los Angeles Department of Water & Power,11208,Electric Utility,Sylmar,Los Angeles,California,91342,13600 Astoria St,solar,2.2,2.2,2.2,Solar = 2.2 MW,Solar Photovoltaic,"EIA-860, EIA-860M and EIA-923",202108,34.319722,-118.430833,POINT Z (-118.43083300000009 34.3197220000001 0),
57309,Pacific Cruise Ship Terminals Berth 93,City of Los Angeles Harbor Department,64344,Commercial Non-CHP,San Pedro,Los Angeles,California,90731,93 Berth,solar,1.1,1.1,1.1,Solar = 1.1 MW,Solar Photovoltaic,"EIA-860, EIA-860M and EIA-923",202108,33.7331,-118.27722,POINT Z (-118.27722000000001 33.7331000000001 0),
57310,1420 Coil Av #C,Konoike Pacific,57320,Commercial Non-CHP,Wilmington,Los Angeles,California,90744,1420 Coil Ave #C,solar,1.3,1.3,1.3,Solar = 1.3 MW,Solar Photovoltaic,"EIA-860, EIA-860M and EIA-923",202108,33.794283,-118.241405,POINT Z (-118.24140500000007 33.794283000000085 0),
57311,Occidental College Solar Project,Occidental College,59551,Commercial Non-CHP,Los Angeles,Los Angeles,California,90041,1600 Campus Rd,solar,1,1,1,Solar = 1 MW,Solar Photovoltaic,"EIA-860, EIA-860M and EIA-923",202108,34.1283,-118.206903,POINT Z (-118.20690300000008 34.128300000000124 0),
57313,Metro Support Services Center Solar,Metropolitan Transportation Authority,57275,Commercial Non-CHP,Los Angeles,Los Angeles,California,90012,900 Lyon St,solar,1.2,1.2,1.2,Solar = 1.2 MW,Solar Photovoltaic,"EIA-860, EIA-860M and EIA-923",202108,34.0578,-118.229722,POINT Z (-118.22972200000008 34.05780000000004 0),
57314,Los Angeles Harbor College,Los Angeles Community College District,57276,Commercial Non-CHP,Wilmington,Los Angeles,California,90744,1111 Figueroa Pl,solar,1.2,2.2,2.2,Solar = 2.2 MW,Solar Photovoltaic,"EIA-860, EIA-860M and EIA-923",202108,33.783102,-118.28493,POINT Z (-118.28493000000009 33.783102000000056 0),
57317,San Luis Valley Solar Ranch,Avangrid Renewables LLC,15399,IPP Non-CHP,Mosca,Alamosa,Colorado,81146,8200 Country Road 106 North,solar,35,35,35,Solar = 35 MW,Solar Photovoltaic,"EIA-860, EIA-860M and EIA-923",202108,37.694535,-105.927622,POINT Z (-105.92762200000008 37.69453500000011 0),
57318,"Poseidon Solar, LLC","Axium Arizona Renewables, LLC",63287,IPP Non-CHP,Globe,GILA,Arizona,85501,Highway 70 W,solar,20,20,20,Solar = 20 MW,Solar Photovoltaic,"EIA-860, EIA-860M and EIA-923",202108,33.160601,-111.484011,POINT Z (-111.48401100000007 33.16060100000012 0),
57321,Mayberry Solar LLC,"Oppidum Renewables USA, LLC",63026,IPP Non-CHP,Mt. Airy,Surry,North Carolina,27030,Wastewater Treatment Rd,solar,1.2,1.2,1.2,Solar = 1.2 MW,Solar Photovoltaic,"EIA-860, EIA-860M and EIA-923",202108,36.476667,-80.601111,POINT Z (-80.60111100000003 36.47666700000013 0),
57324,Luke Solar,Arizona Public Service Co,803,Electric Utility,Glendale,Maricopa,Arizona,85309,6476 N. Ammo Rd.,solar,15,12.8,12.8,Solar = 12.8 MW,Solar Photovoltaic,"EIA-860, EIA-860M and EIA-923",202108,33.526111,-112.37944,POINT Z (-112.37944000000009 33.52611100000009 0),
57330,Kent County Wastewater Treatment Solar,Kent County Levy Court Dept of Pub Work,56681,IPP Non-CHP,Milford,Kent,Delaware,19963,139 Milford Neck Road,solar,1.2,1.2,1.2,Solar = 1.2 MW,Solar Photovoltaic,"EIA-860, EIA-860M and EIA-923",202108,38.993056,-75.4375,POINT Z (-75.43750000000001 38.99305600000006 0),
57331,Mojave Solar Project,Mojave Solar LLC,56660,IPP Non-CHP,Hinkley,San Bernardino,California,92347,42134 Harper Lake Road,solar,280,275,275,Solar = 275 MW,Solar Thermal without Energy Storage,"EIA-860, EIA-860M and EIA-923",202108,35.017717,-117.339144,POINT Z (-117.33914400000012 35.01771700000011 0),
57334,DE Solar 10240 Old Dowd Rd,"Duke Energy Carolinas, LLC",5416,Electric Utility,Charlotte,Mecklenburg,North Carolina,28214,10240 Old Dowd Rd,solar,1.9,1.9,1.9,Solar = 1.9 MW,Solar Photovoltaic,"EIA-860, EIA-860M and EIA-923",202108,35.2458,-80.9967,POINT Z (-80.99670000000008 35.24580000000006 0),
57335,DE Solar 657 Brigham Rd,"Duke Energy Carolinas, LLC",5416,Electric Utility,Greensboro,Guilford,North Carolina,27409,657 Brigham Rd,solar,1.3,1.3,1.3,Solar = 1.3 MW,Solar Photovoltaic,"EIA-860, EIA-860M and EIA-923",202108,36.1053,-79.9692,POINT Z (-79.96919999999999 36.10530000000016 0),
57336,DE Solar 1725 Drywall Dr,"Duke Energy Carolinas, LLC",5416,Electric Utility,Mt. Holly,Gaston,North Carolina,28210,1725 Drywall Dr,solar,1,1,1,Solar = 1 MW,Solar Photovoltaic,"EIA-860, EIA-860M and EIA-923",202108,35.3261,-80.9967,POINT Z (-80.99670000000008 35.32610000000005 0),
57337,Dover Sun Park,"CD Arevon USA, Inc.",61230,IPP Non-CHP,Dover,Kent,Delaware,19901,1455 White Oak Blvd,solar,10,10,10,Solar = 10 MW,Solar Photovoltaic,"EIA-860, EIA-860M and EIA-923",202108,39.183611,-75.504444,POINT Z (-75.50444400000005 39.18361100000007 0),
57338,Roadrunner Solar,NRG Solar Roadrunner,59400,IPP Non-CHP,Santa Teresa,Dona Ana,New Mexico,88044,6500 Bi-National Avenue,solar,20.2,20,20,Solar = 20 MW,Solar Photovoltaic,"EIA-860, EIA-860M and EIA-923",202108,31.792778,-106.673333,POINT Z (-106.67333300000008 31.792778000000133 0),
57340,Panoche Valley Solar Farm,Consolidated Edison Development Inc.,56769,IPP Non-CHP,Paicines,San Benito,California,95053,28002 Little Panoche Rd,solar,140,140,140,Solar = 140 MW,Solar Photovoltaic,"EIA-860, EIA-860M and EIA-923",202108,36.627,-120.879,POINT Z (-120.87900000000009 36.627000000000095 0),
57341,Silver Lake Solar Farm,Public Service Elec & Gas Co,15477,Electric Utility,Edison,Middlesex,New Jersey,8817,410 Silver Lake Avenue,solar,1.7,1.7,1.7,Solar = 1.7 MW,Solar Photovoltaic,"EIA-860, EIA-860M and EIA-923",202108,40.494804,-74.399511,POINT Z (-74.39951100000003 40.494804000000144 0),
57352,Trenton Solar Farm,Public Service Elec & Gas Co,15477,Electric Utility,Trenton,Mercer,New Jersey,8638,500-520 Brunswick Avenue,solar,1,1,1,Solar = 1 MW,Solar Photovoltaic,"EIA-860, EIA-860M and EIA-923",202108,40.2314,-74.7539,POINT Z (-74.75390000000007 40.23140000000015 0),
57359,Avenal Park,Avenal Solar Holdings LLC,56700,IPP Non-CHP,Avenal,Kings,California,93204,36th Avenue,solar,6,6,6,Solar = 6 MW,Solar Photovoltaic,"EIA-860, EIA-860M and EIA-923",202108,35.989722,-120.11,POINT Z (-120.11000000000008 35.98972200000003 0),
57360,Sun City Project LLC,Avenal Solar Holdings LLC,56700,IPP Non-CHP,Avenal,Kings,California,93204,36th Avenue,solar,20,20,20,Solar = 20 MW,Solar Photovoltaic,"EIA-860, EIA-860M and EIA-923",202108,35.983056,-120.110277,POINT Z (-120.11027700000002 35.983056000000126 0),
57361,Sand Drag LLC,Avenal Solar Holdings LLC,56700,IPP Non-CHP,Avenal,Kings,California,93204,36th Avenue,solar,19,19,19,Solar = 19 MW,Solar Photovoltaic,"EIA-860, EIA-860M and EIA-923",202108,35.982778,-120.110277,POINT Z (-120.11027700000002 35.982778000000096 0),
57362,Morgantown Solar Park,The Hankin Group,56701,IPP Non-CHP,Morgantown,Berks,Pennsylvania,19543,32 Timber Road,solar,2,1.6,1.6,Solar = 1.6 MW,Solar Photovoltaic,"EIA-860, EIA-860M and EIA-923",202108,40.152069,-75.865916,POINT Z (-75.86591600000004 40.152069000000104 0),
57363,510 REPP One,510 REPP One LLC,56702,IPP Non-CHP,Garysburg,Northampton,North Carolina,27831,964 Lebanon Church Rd,solar,1.3,1.3,1.3,Solar = 1.3 MW,Solar Photovoltaic,"EIA-860, EIA-860M and EIA-923",202108,36.4972,-77.6058,POINT Z (-77.60580000000003 36.49720000000011 0),
57367,Pocono Solar Project,Pocono International Raceway Inc,56705,Commercial Non-CHP,Long Pond,Monroe,Pennsylvania,18334,1207 Long Pond Road,solar,3,3,3,Solar = 3 MW,Solar Photovoltaic,"EIA-860, EIA-860M and EIA-923",202108,41.061022,-75.514924,POINT Z (-75.51492400000002 41.06102200000009 0),
57368,Cogentrix of Alamosa,KEPCO Alamosa LLC,56696,IPP Non-CHP,Mosca,Alamosa,Colorado,81146, 4533 Lane 2 North,solar,30,30,30,Solar = 30 MW,Solar Photovoltaic,"EIA-860, EIA-860M and EIA-923",202108,37.598579,-105.955832,POINT Z (-105.95583200000006 37.598579000000065 0),
57369,Questa Solar Facility,Chevron Technology Ventures,56706,IPP Non-CHP,Questa,Taos,New Mexico,87556,24 Abra Road,solar,1,1,1,Solar = 1 MW,Solar Photovoltaic,"EIA-860, EIA-860M and EIA-923",202108,36.716944,-105.60944,POINT Z (-105.60944000000002 36.71694400000015 0),
57372,Bellevue Solar Project,"EDF Renewable Asset Holdings, Inc.",57170,IPP Non-CHP,Amnity,Yamhill,Oregon,97101,Bellevue Highway,solar,1.6,1.6,1.6,Solar = 1.6 MW,Solar Photovoltaic,"EIA-860, EIA-860M and EIA-923",202108,45.112222,-123.234722,POINT Z (-123.2347220000001 45.1122220000001 0),
57373,Agua Caliente Solar Project,Agua Caliente Solar,59396,IPP Non-CHP,Dateland,Yuma,Arizona,85333,67500 East Palomas Rd,solar,347.7,347.7,347.7,Solar = 347.7 MW,Solar Photovoltaic,"EIA-860, EIA-860M and EIA-923",202108,32.9774,-113.4945,POINT Z (-113.49450000000006 32.97740000000013 0),
57377,Greater Sandhill I,Greater Sandhill I LLC,56720,IPP Non-CHP,Mosca,Alamosa,Colorado,81146,County Road 108 & Eightmile Ln,solar,19,19,19,Solar = 19 MW,Solar Photovoltaic,"EIA-860, EIA-860M and EIA-923",202108,37.685467,-105.8909,POINT Z (-105.89090000000007 37.68546700000014 0),
57378,AV Solar Ranch One,AV Solar Ranch 1 LLC,56722,IPP Non-CHP,Lancaster,Los Angeles,California,93536,49881 West 170 St.,solar,253,241.5,241.5,Solar = 241.5 MW,Solar Photovoltaic,"EIA-860, EIA-860M and EIA-923",202108,34.780278,-118.42444,POINT Z (-118.42444000000005 34.78027800000015 0),
57381,Linden Solar Farm,Public Service Elec & Gas Co,15477,Electric Utility,Linden,Union,New Jersey,7036,South Wood Avenue,solar,2.7,2.7,2.7,Solar = 2.7 MW,Solar Photovoltaic,"EIA-860, EIA-860M and EIA-923",202108,40.62,-74.2144,POINT Z (-74.21440000000003 40.62000000000016 0),
57382,Yardville Solar Farm,Public Service Elec & Gas Co,15477,Electric Utility,Hamilton,Mercer,New Jersey,8611,Broad Street,solar,3.6,3.6,3.6,Solar = 3.6 MW,Solar Photovoltaic,"EIA-860, EIA-860M and EIA-923",202108,40.168811,-74.656719,POINT Z (-74.656719 40.168811000000076 0),
57383,WEA Texas Bayonne,Public Service Elec & Gas Co,15477,Electric Utility,Bayonne,Hudson,New Jersey,7002,30-100 Pulaski Street,solar,1.5,1.5,1.5,Solar = 1.5 MW,Solar Photovoltaic,"EIA-860, EIA-860M and EIA-923",202108,40.6772,-74.0919,POINT Z (-74.09190000000001 40.67720000000004 0),
57384,Matrix Buildings A&B (Perth Amboy) Solar,Public Service Elec & Gas Co,15477,Electric Utility,Perth Amboy,Middlesex,New Jersey,8861,1000 & 1050 Amboy Avenue,solar,2.5,2.5,2.5,Solar = 2.5 MW,Solar Photovoltaic,"EIA-860, EIA-860M and EIA-923",202108,40.534393,-74.269998,POINT Z (-74.26999800000006 40.53439300000016 0),
57390,GSK York RDC Solar Facility,GlaxoSmithKline Consumer Healthcare L P,56732,IPP Non-CHP,York,York,Pennsylvania,17406,105 Willow Springs Lane,solar,2.6,1.6,1.6,Solar = 1.6 MW,Solar Photovoltaic,"EIA-860, EIA-860M and EIA-923",202108,40.043856,-76.735474,POINT Z (-76.73547400000002 40.04385600000008 0),
57392,UASTP I,Tucson Electric Power Co,24211,Electric Utility,Tucson,Pima,Arizona,85747,9070 S. Rita Road,solar,1.2,1.2,1.2,Solar = 1.2 MW,Solar Photovoltaic,"EIA-860, EIA-860M and EIA-923",202108,32.096973,-110.8106,POINT Z (-110.81060000000006 32.09697300000014 0),
57394,Genesis Solar Energy Project,Genesis Solar LLC,56723,IPP Non-CHP,Blythe,Riverside,California,92225,11995 Wiley's Road,solar,250,250,250,Solar = 250 MW,Solar Thermal without Energy Storage,"EIA-860, EIA-860M and EIA-923",202108,33.665,-114.998055,POINT Z (-114.99805500000008 33.6650000000001 0),
57397,Dow Jones South Brunswick Solar,Dow Jones & Co,56728,IPP Non-CHP,Monmouth Junction,Middlesex,New Jersey,8852,4300 US Highway 1,solar,4.1,4.1,4.1,Solar = 4.1 MW,Solar Photovoltaic,"EIA-860, EIA-860M and EIA-923",202108,40.369772,-74.58685,POINT Z (-74.58685 40.36977200000009 0),
57402,Taylorsville Solar LLC,Taylorsville Solar LLC,56798,IPP Non-CHP,Taylorsville,Alexander,North Carolina,28681,677 Boston Road,solar,1.2,1,1,Solar = 1 MW,Solar Photovoltaic,"EIA-860, EIA-860M and EIA-923",202108,35.909074,-81.152498,POINT Z (-81.15249800000002 35.909074000000096 0),
57412,Knouse Solar Project 1,Knouse Food Cooperative Inc,56741,Industrial Non-CHP,Gardners,Cumberland,Pennsylvania,17324,47 Coon Road,solar,3,2.8,2.8,Solar = 2.8 MW,Solar Photovoltaic,"EIA-860, EIA-860M and EIA-923",202108,40.0264,-77.2344,POINT Z (-77.23440000000001 40.026400000000194 0),
57422,Yolo County Solar Project,Yolo County of,56751,Commercial Non-CHP,Woodland,Yolo,California,95695,2420 East Gibson Street,solar,1,1,1,Solar = 1 MW,Solar Photovoltaic,"EIA-860, EIA-860M and EIA-923",202108,38.659722,-121.7294,POINT Z (-121.72940000000007 38.6597220000001 0),
57435,Solar Star North Carolina II LLC,Solar Star North Carolina II LLC,56758,IPP Non-CHP,Murfreesboro,Hertford,North Carolina,27855,US-158,solar,6.5,5,5,Solar = 5 MW,Solar Photovoltaic,"EIA-860, EIA-860M and EIA-923",202108,36.425,-77.064,POINT Z (-77.06400000000005 36.425000000000125 0),
57438,"Solar Park Gainesville, LLC","Altus Power America Management, LLC",60281,IPP Non-CHP,Gainesville,Alachua,Florida,32609,4911 NW 6th Street,solar,1.6,1.6,1.6,Solar = 1.6 MW,Solar Photovoltaic,"EIA-860, EIA-860M and EIA-923",202108,29.700407,-82.337828,POINT Z (-82.33782800000004 29.70040700000006 0),
57439,California Valley Solar Ranch,"NRG Renew Operation & Maintenance, LLC",56762,IPP Non-CHP,California Valley,San Luis Obispo,California,93453,13505 Carrisa Highway,solar,249.8,249.8,249.8,Solar = 249.8 MW,Solar Photovoltaic,"EIA-860, EIA-860M and EIA-923",202108,35.323739,-119.91663,POINT Z (-119.91663000000007 35.3237390000001 0),
57441,Solar Photovoltaic Project #42,Southern California Edison Co,17609,Electric Utility,Tulare,Tulare,California,93257,2782 West Edison Court,solar,5,5,5,Solar = 5 MW,Solar Photovoltaic,"EIA-860, EIA-860M and EIA-923",202108,36.028056,-119.074722,POINT Z (-119.07472200000007 36.028056000000085 0),
57442,Silver State Solar Power North,"Silver State Solar Power North, LLC",62968,IPP Non-CHP,Primm,Clark,Nevada,89019,1250 East Primm Blvd,solar,52,50,50,Solar = 50 MW,Solar Photovoltaic,"EIA-860, EIA-860M and EIA-923",202108,35.793056,-115.35028,POINT Z (-115.35028000000003 35.79305600000008 0),
57448,Pilesgrove,Consolidated Edison Development Inc.,56769,IPP Non-CHP,Pilesgrove,Salem,New Jersey,8098,388 Mannington-Yorketown Road,solar,18,17.7,17.7,Solar = 17.7 MW,Solar Photovoltaic,"EIA-860, EIA-860M and EIA-923",202108,39.613028,-75.309477,POINT Z (-75.30947700000004 39.61302800000009 0),
57455,Solar Borrego I,NRG Solar Borrego I,57271,IPP Non-CHP,Borrego Springs,San Diego,California,92004,South of Henderson County Road,solar,26,26,26,Solar = 26 MW,Solar Photovoltaic,"EIA-860, EIA-860M and EIA-923",202108,33.298889,-116.35083,POINT Z (-116.35083000000003 33.298889000000116 0),
57458,145 Talmadge Solar,Avidan Energy Solutions,56777,IPP Non-CHP,Edison,Middlesex,New Jersey,8817,145 Talmadge Rd,solar,3.8,3.8,3.8,Solar = 3.8 MW,Solar Photovoltaic,"EIA-860, EIA-860M and EIA-923",202108,40.535787,-74.391268,POINT Z (-74.39126800000007 40.535787000000134 0),
57461,"Martins Creek Solar NC, LLC","Martins Creek Solar NC, LLC",56779,IPP Non-CHP,Murphy,Cherokee,North Carolina,28906,1459 Tobe Stalcup Road,solar,1,0.9,0.9,Solar = 0.9 MW,Solar Photovoltaic,"EIA-860, EIA-860M and EIA-923",202108,35.020415,-84.015676,POINT Z (-84.01567600000006 35.02041500000016 0),
57462,Napoleon Solar I,Enfinity BNB Napoleon Solar LLC,56780,IPP Non-CHP,Napoleon,Henry,Ohio,43545,12733 State Route 110,solar,8,8,8,Solar = 8 MW,Solar Photovoltaic,"EIA-860, EIA-860M and EIA-923",202108,41.388431,-84.095841,POINT Z (-84.095841 41.38843100000006 0),
57465,Romark PA Solar,Romark Logistics of PA Inc.,56783,IPP Non-CHP,Hazle Township,Luzerne,Pennsylvania,18202,546 Can-Do Highway,solar,1.8,1.8,1.8,Solar = 1.8 MW,Solar Photovoltaic,"EIA-860, EIA-860M and EIA-923",202108,40.936111,-76.038888,POINT Z (-76.03888800000001 40.936111000000096 0),
57471,Murray Hill Solar,Consolidated Edison Development Inc.,56769,IPP Non-CHP,New Providence,Union,New Jersey,7974,600 Mountain Ave,solar,1,1,1,Solar = 1 MW,Solar Photovoltaic,"EIA-860, EIA-860M and EIA-923",202108,40.684444,-74.404444,POINT Z (-74.40444400000003 40.684444000000056 0),
57473,Dartmouth Solar,Consolidated Edison Development Inc.,56769,IPP Non-CHP,Dartmouth,Bristol,Massachusetts,2747,420 Samuel Barnet Blvd,solar,1.6,1.6,1.6,Solar = 1.6 MW,Solar Photovoltaic,"EIA-860, EIA-860M and EIA-923",202108,41.715804,-70.974448,POINT Z (-70.97444799999998 41.71580400000014 0),
57481,Chittenden County Solar Partners,Chittenden County Solar Partners LLC,56795,IPP Non-CHP,South Burlington,Chittenden,Vermont,5403,350 Dubois Dr,solar,2.2,2.2,2.2,Solar = 2.2 MW,Solar Photovoltaic,"EIA-860, EIA-860M and EIA-923",202108,44.436111,-73.145277,POINT Z (-73.14527700000005 44.43611100000014 0),
57485,Flemington Solar,Consolidated Edison Development Inc.,56769,IPP Non-CHP,Flemington,Hunterdon,New Jersey,8822,21 Kuhl Road,solar,8,7.9,7.9,Solar = 7.9 MW,Solar Photovoltaic,"EIA-860, EIA-860M and EIA-923",202108,40.483888,-74.856666,POINT Z (-74.85666600000002 40.483888000000086 0),
57486,Frenchtown I Solar,Consolidated Edison Development Inc.,56769,IPP Non-CHP,Frenchtown,Hunterdon,New Jersey,8225,1038 Route 12,solar,3,3,3,Solar = 3 MW,Solar Photovoltaic,"EIA-860, EIA-860M and EIA-923",202108,40.521667,-75.012222,POINT Z (-75.01222200000005 40.521667000000086 0),
57487,Frenchtown II Solar,Consolidated Edison Development Inc.,56769,IPP Non-CHP,Frenchtown,Hunterdon,New Jersey,8825,30 Slacktown Road,solar,3,3,3,Solar = 3 MW,Solar Photovoltaic,"EIA-860, EIA-860M and EIA-923",202108,40.514444,-74.976944,POINT Z (-74.97694400000003 40.51444400000004 0),
57488,Lebanon Solar,Consolidated Edison Development Inc.,56769,IPP Non-CHP,Glen Gardner,Hunterdon,New Jersey,8826,111 Buffalo Hollow Road,solar,2,2,2,Solar = 2 MW,Solar Photovoltaic,"EIA-860, EIA-860M and EIA-923",202108,40.675833,-74.912222,POINT Z (-74.91222200000006 40.6758330000001 0),
57490,Imperial Solar Energy Center South,CSOLAR IV South LLC,56819,IPP Non-CHP,Calexico,Imperial,California,92231,147 Pulliam Rd,solar,128.9,128.9,128.9,Solar = 128.9 MW,Solar Photovoltaic,"EIA-860, EIA-860M and EIA-923",202108,32.663289,-115.658284,POINT Z (-115.65828400000008 32.66328900000013 0),
57491,Imperial Solar Energy Center West,CSOLAR IV West LLC,57260,IPP Non-CHP,Seeley,Imperial,California,92273,3020 West County Road 16,solar,148.7,148.7,148.7,Solar = 148.7 MW,Solar Photovoltaic,"EIA-860, EIA-860M and EIA-923",202108,32.772225,-115.779311,POINT Z (-115.77931100000004 32.77222500000013 0),
57494,Masser Farms Realty Solar,Masser Farms Realty Ltd,56816,IPP Non-CHP,Sacramento,Schuylkill,Pennsylvania,17968,2 Fearnot Road,solar,1,1,1,Solar = 1 MW,Solar Photovoltaic,"EIA-860, EIA-860M and EIA-923",202108,40.640556,-76.605417,POINT Z (-76.60541700000007 40.64055600000012 0),
57497,Stroud Solar Station,Pacific Gas & Electric Co.,14328,Electric Utility,Helm,Fresno,California,93627,18285 W Kamm Avenue,solar,20,20,20,Solar = 20 MW,Solar Photovoltaic,"EIA-860, EIA-860M and EIA-923",202108,36.531389,-120.106944,POINT Z (-120.10694400000006 36.53138900000007 0),
57498,Five Points Solar Station,Pacific Gas & Electric Co.,14328,Electric Utility,Five Points,Fresno,California,96324,23011 S Lassen Avenue,solar,15,15,15,Solar = 15 MW,Solar Photovoltaic,"EIA-860, EIA-860M and EIA-923",202108,36.400278,-120.103333,POINT Z (-120.10333300000005 36.400278000000164 0),
57499,Westside Solar Station,Pacific Gas & Electric Co.,14328,Electric Utility,Five Points,Fresno,California,96324,34345 S Trinity Avenue,solar,15,15,15,Solar = 15 MW,Solar Photovoltaic,"EIA-860, EIA-860M and EIA-923",202108,36.378726,-120.124898,POINT Z (-120.12489800000013 36.37872600000009 0),
57506,FRV SI Transport Solar LP,Longroad Energy Services LLC,61219,IPP Non-CHP,Sacramento,Sacramento,California,95828,7340 French Road,solar,1,1,1,Solar = 1 MW,Solar Photovoltaic,"EIA-860, EIA-860M and EIA-923",202108,38.4869,-121.3911,POINT Z (-121.39110000000008 38.48690000000015 0),
57507,RV CSU Power II LLC,RV CSU Power II LLC,56828,Commercial Non-CHP,Fort Collins,Larimer,Colorado,80521,3841 LaPorte Avenue,solar,3,3,3,Solar = 3 MW,Solar Photovoltaic,"EIA-860, EIA-860M and EIA-923",202108,40.592841,-105.147097,POINT Z (-105.14709700000009 40.59284100000019 0),
57509,Carson Solar I,Carson Solar 1 LLC,56830,IPP Non-CHP,Colorado Springs,El Paso,Colorado,80913,SW Corner of Titus Blvd and Bu,solar,2,1.5,1.5,Solar = 1.5 MW,Solar Photovoltaic,"EIA-860, EIA-860M and EIA-923",202108,38.7228,-104.7817,POINT Z (-104.78170000000003 38.722800000000156 0),
57519,Trexlertown Solar Array North and South,Trexlertown Solar Array North and South,56856,Industrial Non-CHP,Allentown,Lehigh,Pennsylvania,18195,7201Hamilton Boulevard,solar,1.9,1.9,1.9,Solar = 1.9 MW,Solar Photovoltaic,"EIA-860, EIA-860M and EIA-923",202108,40.556211,-75.593873,POINT Z (-75.59387300000004 40.55621100000014 0),
57521,Giffen,Pacific Gas & Electric Co.,14328,Electric Utility,TBD,Fresno,California,93608,14240 San Mateo Avenue,solar,10,10,10,Solar = 10 MW,Solar Photovoltaic,"EIA-860, EIA-860M and EIA-923",202108,36.530278,-120.316111,POINT Z (-120.31611100000008 36.53027800000009 0),
57522,Cantua Solar Station,Pacific Gas & Electric Co.,14328,Electric Utility,TBD,Fresno,California,93608,21007 Stanislaus Avenue,solar,20,20,20,Solar = 20 MW,Solar Photovoltaic,"EIA-860, EIA-860M and EIA-923",202108,36.425085,-120.343543,POINT Z (-120.34354300000005 36.42508500000011 0),
57523,Huron Solar Station,Pacific Gas & Electric Co.,14328,Electric Utility,Huron,Fresno,California,93234,17123 W Gale Avenue,solar,20,20,20,Solar = 20 MW,Solar Photovoltaic,"EIA-860, EIA-860M and EIA-923",202108,36.181389,-120.030555,POINT Z (-120.03055500000012 36.181389000000124 0),
57524,Roger Road WWTP,SunE M5C Holdings LLC,56857,IPP Non-CHP,Tucson,Pima,Arizona,85705,2600 W Sweetwater Drive,solar,1.1,0.9,0.9,Solar = 0.9 MW,Solar Photovoltaic,"EIA-860, EIA-860M and EIA-923",202108,32.2894,-111.0331,POINT Z (-111.03310000000008 32.28940000000016 0),
57525,Kapaa Photovoltaic Project,Kapaa Solar LLC,56863,IPP Non-CHP,Kapaa,Kauai,Hawaii,96746,Lot No. 2 of Tax Map Key (4)4-,solar,1,1,1,Solar = 1 MW,Solar Photovoltaic,"EIA-860, EIA-860M and EIA-923",202108,22.080416,-159.331599,POINT Z (-159.3315990000001 22.08041600000009 0),
57534,Solar Photovoltaic Project #32,Southern California Edison Co,17609,Electric Utility,Ontario,San Bernardino,California,91761,2250 Sequoia Avenue,solar,1.5,1.5,1.5,Solar = 1.5 MW,Solar Photovoltaic,"EIA-860, EIA-860M and EIA-923",202108,34.031667,-117.571944,POINT Z (-117.57194400000006 34.03166700000011 0),
57535,Solar Photovoltaic Project #33,Southern California Edison Co,17609,Electric Utility,Ontario,San Bernardino,California,91761,3800 E Philadelphia Street,solar,1,1,1,Solar = 1 MW,Solar Photovoltaic,"EIA-860, EIA-860M and EIA-923",202108,34.0325,-117.569166,POINT Z (-117.56916600000004 34.03250000000007 0),
57554,AFA Solar Farm,Solar Star Colorado II LLC,56892,IPP Non-CHP,Colorado Springs,El Paso,Colorado,80840,Air Force Academy,solar,5.5,5.5,5.5,Solar = 5.5 MW,Solar Photovoltaic,"EIA-860, EIA-860M and EIA-923",202108,38.957901,-104.806627,POINT Z (-104.8066270000001 38.95790100000008 0),
57556,La Senita,"UNS Electric, Inc",19728,Electric Utility,Kingman,Mohave,Arizona,86409,E Gordon Drive,solar,1,1,1,Solar = 1 MW,Solar Photovoltaic,"EIA-860, EIA-860M and EIA-923",202108,35.241675,-114.004591,POINT Z (-114.00459100000009 35.24167500000009 0),
57559,Sunset Reservoir North Basin,"RE SFCity1, LP",56902,IPP Non-CHP,San Francisco,San Francisco,California,94121,24th Ave & Ortega St,solar,4.5,4.5,4.5,Solar = 4.5 MW,Solar Photovoltaic,"EIA-860, EIA-860M and EIA-923",202108,37.750894,-122.481758,POINT Z (-122.48175800000008 37.750894000000095 0),
57560,Chino Solar Valley,Arizona Public Service Co,803,Electric Utility,Chino Valley,Yavapai,Arizona,86323,1900 E Road 4 South,solar,19,19,19,Solar = 19 MW,Solar Photovoltaic,"EIA-860, EIA-860M and EIA-923",202108,34.71843,-112.42899,POINT Z (-112.42899000000003 34.71843000000023 0),
57561,Cotton Center Solar Hybrid,Arizona Public Service Co,803,Electric Utility,Gila Bend,Maricopa,Arizona,85337,45625 S Old US 80,solar,17,17,17,Solar = 17 MW,Solar Photovoltaic,"EIA-860, EIA-860M and EIA-923",202108,33.034722,-112.661667,POINT Z (-112.66166700000004 33.03472200000006 0),
57562,Paloma Solar Hybrid,Arizona Public Service Co,803,Electric Utility,Gila Bend,Maricopa,Arizona,85337,46700 S Old US 80,solar,17.6,17.6,17.6,Solar = 17.6 MW,Solar Photovoltaic,"EIA-860, EIA-860M and EIA-923",202108,33.021111,-112.661389,POINT Z (-112.66138900000009 33.02111100000018 0),
57563,Hyder Solar Hybrid,Arizona Public Service Co,803,Electric Utility,Hyder,Yuma,Arizona,85333,75100 E County 14 1/2 St,solar,22,22,22,Solar = 22 MW,Solar Photovoltaic,"EIA-860, EIA-860M and EIA-923",202108,33.02566,-113.34397,POINT Z (-113.34397000000004 33.02566000000014 0),
57565,"RP-Orlando, LLC","RP-Orlando, LLC",56904,IPP Non-CHP,Orlando,Orange,Florida,32831,5100 S. Alafaya Trail,solar,5.1,5.1,5.1,Solar = 5.1 MW,Solar Photovoltaic,"EIA-860, EIA-860M and EIA-923",202108,28.488889,-81.182222,POINT Z (-81.18222200000002 28.488889000000086 0),
57567,Albuquerque Solar Energy Center,PNM Resources,59300,Electric Utility,Albuquerque,Bernalillo,New Mexico,87113,4400 Paseo Del Norte,solar,2,2,2,Solar = 2 MW,Solar Photovoltaic,"EIA-860, EIA-860M and EIA-923",202108,35.168957,-106.60005,POINT Z (-106.60005000000007 35.168957000000155 0),
57571,Los Lunas Solar Energy Center,PNM Resources,59300,Electric Utility,Los Lunas,Valencia,New Mexico,87031,900 PNM Lane,solar,7,7,7,Solar = 7 MW,Solar Photovoltaic,"EIA-860, EIA-860M and EIA-923",202108,34.833136,-106.772413,POINT Z (-106.77241300000004 34.83313600000008 0),
57574,ETS Ewing Solar Facility,Goldman Sachs Renewable Power Group,61944,IPP Non-CHP,Ewing,Mercer,New Jersey,8618,225 Philips Blvd,solar,1.3,1.3,1.3,Solar = 1.3 MW,Solar Photovoltaic,"EIA-860, EIA-860M and EIA-923",202108,40.281801,-74.793638,POINT Z (-74.79363800000003 40.281801000000144 0),
57575,Deming Solar Energy Center,PNM Resources,59300,Electric Utility,Deming,Luna,New Mexico,88030,65 Coyote Road SW,solar,9,9,9,Solar = 9 MW,Solar Photovoltaic,"EIA-860, EIA-860M and EIA-923",202108,32.165833,-107.75056,POINT Z (-107.75056000000005 32.165833000000156 0),
57576,Las Vegas Solar Energy Center,PNM Resources,59300,Electric Utility,Las Vegas,San Miguel,New Mexico,87701,80 Highway 518,solar,5,5,5,Solar = 5 MW,Solar Photovoltaic,"EIA-860, EIA-860M and EIA-923",202108,35.643333,-105.206667,POINT Z (-105.20666700000008 35.64333300000019 0),
57577,Alamogordo Solar Energy Center,PNM Resources,59300,Electric Utility,Alamogordo,Otero,New Mexico,88310,21117 U. S Highway 70,solar,5,4.9,4.9,Solar = 4.9 MW,Solar Photovoltaic,"EIA-860, EIA-860M and EIA-923",202108,32.86571,-105.999775,POINT Z (-105.99977500000006 32.86571000000006 0),
57579,Robert O Schulz Solar Farm,South San Joaquin Irr District,17573,Electric Utility,Oakdale,Stanislaus,California,95361,5835 Dodds Road,solar,1.3,1.3,1.3,Solar = 1.3 MW,Solar Photovoltaic,"EIA-860, EIA-860M and EIA-923",202108,37.8583,-120.8917,POINT Z (-120.89170000000006 37.85830000000013 0),
57588,Matrix Stults Road Solar Facility,Public Service Elec & Gas Co,15477,Electric Utility,South Brunswick,Middlesex,New Jersey,8876,45 Stults Road,solar,2.6,2.6,2.6,Solar = 2.6 MW,Solar Photovoltaic,"EIA-860, EIA-860M and EIA-923",202108,40.3622,-74.4797,POINT Z (-74.47970000000004 40.36220000000009 0),
57589,Long Island Solar Farm LLC,Long Island Solar Farm LLC,56924,IPP Non-CHP,Upton,Suffolk,New York,11949,295 North Street,solar,31.5,31.5,31.5,Solar = 31.5 MW,Solar Photovoltaic,"EIA-860, EIA-860M and EIA-923",202108,40.861111,-72.847777,POINT Z (-72.84777700000004 40.861111000000136 0),
57591,"Hatch Solar Energy Center I, LLC","Hatch Solar Energy Center I, LLC",56926,IPP Non-CHP,Hatch,Dona Ana,New Mexico,87937,7349 Hwy. 26,solar,5,5,5,Solar = 5 MW,Solar Photovoltaic,"EIA-860, EIA-860M and EIA-923",202108,32.63,-107.259722,POINT Z (-107.25972200000004 32.63000000000015 0),
57640,500 Virginia Solar,Alliance HP Virginia Drive LLC,64045,IPP Non-CHP,Ft. Washington,Montgomery,Pennsylvania,19034,500 Virginia Drive,solar,1,1,1,Solar = 1 MW,Solar Photovoltaic,"EIA-860, EIA-860M and EIA-923",202108,40.139167,-75.191667,POINT Z (-75.19166700000002 40.13916700000013 0),
57645,City & County of Denver at Denver Int'l,"Denver Airport Solar, LLC",56974,IPP Non-CHP,Denver,Denver,Colorado,80249,28600 E 114th Ave.,solar,3.4,3.4,3.4,Solar = 3.4 MW,Solar Photovoltaic,"EIA-860, EIA-860M and EIA-923",202108,39.904133,-104.654183,POINT Z (-104.65418300000012 39.90413300000011 0),
57646,McCormick & Co. Inc. at Belcamp,"Constellation Solar Maryland, LLC",56975,IPP Non-CHP,Belcamp,Harford,Maryland,21017,4607 McCormick Dr.,solar,1.4,1.4,1.4,Solar = 1.4 MW,Solar Photovoltaic,"EIA-860, EIA-860M and EIA-923",202108,39.4836,-76.2292,POINT Z (-76.22919999999998 39.48360000000006 0),
57647,"Toys R Us- DE, Inc. at Mt. Olive, NJ","Constellation Solar New Jersey II, LLC",56976,IPP Non-CHP,Mt. Olive,Morris,New Jersey,7828,703 Bartley-Chester Road,solar,4.1,4.1,4.1,Solar = 4.1 MW,Solar Photovoltaic,"EIA-860, EIA-860M and EIA-923",202108,40.818888,-74.718611,POINT Z (-74.71861099999998 40.81888800000017 0),
57650,Regulus Solar Project,"Regulus Solar, LLC",56980,IPP Non-CHP,Bakersfield,Kern,California,93307,Intersection of East Panama La,solar,60,60,60,Solar = 60 MW,Solar Photovoltaic,"EIA-860, EIA-860M and EIA-923",202108,35.3,-118.851944,POINT Z (-118.85194400000003 35.30000000000015 0),
57651,Adobe Solar,Southern Power Co,17650,IPP Non-CHP,Arvin,KERN,California,93203,6765 Crider Avenue,solar,20,20,20,Solar = 20 MW,Solar Photovoltaic,"EIA-860, EIA-860M and EIA-923",202108,35.102778,-118.954444,POINT Z (-118.95444400000008 35.10277800000007 0),
57652,Yamhill Solar LLC,"EDF Renewable Asset Holdings, Inc.",57170,IPP Non-CHP,Amity,Yamhill,Oregon,97101,15805 Christensen Rd,solar,1,1,1,Solar = 1 MW,Solar Photovoltaic,"EIA-860, EIA-860M and EIA-923",202108,45.108889,-123.278611,POINT Z (-123.27861100000011 45.108889000000126 0),
57655,Bakersfield College Solar 01,Kern Community College District,56982,Commercial Non-CHP,Bakersfield,Kern,California,93301,1801 Panorama Drive,solar,1.1,1.1,1.1,Solar = 1.1 MW,Solar Photovoltaic,"EIA-860, EIA-860M and EIA-923",202108,35.411817,-118.96864,POINT Z (-118.9686400000001 35.41181700000013 0),
57656,"Temescal Canyon RV, LLC","Temescal Canyon RV, LLC",56984,IPP Non-CHP,Corona,Riverside,California,92881,20242 Temescal Canyon Rd,solar,1.5,1.5,1.5,Solar = 1.5 MW,Solar Photovoltaic,"EIA-860, EIA-860M and EIA-923",202108,33.826389,-117.511667,POINT Z (-117.51166700000012 33.82638900000013 0),
57657,Avra Valley Solar,NRG Solar Avra Valley,59398,IPP Non-CHP,Marana,Pima,Arizona,85653,9602 N. Garvey Road,solar,25,25,25,Solar = 25 MW,Solar Photovoltaic,"EIA-860, EIA-860M and EIA-923",202108,32.371667,-111.282777,POINT Z (-111.28277700000007 32.37166700000013 0),
57659,East Blackland Solar Project 1,East Blackland Solar Project 1 LLC,56987,IPP Non-CHP,Manor,Travis,Texas,78653,17414 Manda Carlson Rd,solar,144,144,144,Solar = 144 MW,Solar Photovoltaic,"EIA-860, EIA-860M and EIA-923",202108,30.4214,-97.4614,POINT Z (-97.46140000000008 30.42140000000015 0),
57660,Vineland Mays Landing Solar,NJR Clean Energy Ventures Corporation,56990,IPP Non-CHP,Millville,Cumberland,New Jersey,8332,3042 Mays Landing Road,solar,4.3,3.7,3.7,Solar = 3.7 MW,Solar Photovoltaic,"EIA-860, EIA-860M and EIA-923",202108,39.4175,-74.973889,POINT Z (-74.97388900000007 39.41750000000017 0),
57661,Manalapan Village Solar,NJR Clean Energy Ventures Corporation,56990,IPP Non-CHP,Manalapan,Monmouth,New Jersey,7726,162 Highway 33 and Millhurst R,solar,3.5,3.5,3.5,Solar = 3.5 MW,Solar Photovoltaic,"EIA-860, EIA-860M and EIA-923",202108,40.256667,-74.349722,POINT Z (-74.34972200000004 40.256667000000085 0),
57662,McGraw Hill Solar,NJR Clean Energy Ventures Corporation,56990,IPP Non-CHP,East Windsor Township,Mercer,New Jersey,8520,159 Princeton Hightstown Road,solar,12,12,12,Solar = 12 MW,Solar Photovoltaic,"EIA-860, EIA-860M and EIA-923",202108,40.279722,-74.556389,POINT Z (-74.556389 40.27972200000015 0),
57667,Seabrook Solar Plant,Goldman Sachs Renewable Power Group,61944,IPP Non-CHP,Seabrook,Cumberland,New Jersey,8302,85 Finley Road,solar,6.8,6.8,6.8,Solar = 6.8 MW,Solar Photovoltaic,"EIA-860, EIA-860M and EIA-923",202108,39.485,-75.215,POINT Z (-75.21500000000006 39.485000000000106 0),
57668,CASD Solar,Carlisle Area School District,56994,Commercial Non-CHP,Carlisle,Cumberland,Pennsylvania,17013,623 West Penn Street,solar,1.3,1.3,1.3,Solar = 1.3 MW,Solar Photovoltaic,"EIA-860, EIA-860M and EIA-923",202108,40.2142,-77.2061,POINT Z (-77.20610000000003 40.214200000000105 0),
57669,SMUD at Grundman,"Sacramento PV Energy, LLC",56995,IPP Non-CHP,Elk Grove,Sacramento,California,95757,10645 Bruceville Road,solar,17,18,18,Solar = 18 MW,Solar Photovoltaic,"EIA-860, EIA-860M and EIA-923",202108,38.364722,-121.41278,POINT Z (-121.41278000000005 38.36472200000009 0),
57670,SMUD at Van Conett,"Sacramento PV Energy, LLC",56995,IPP Non-CHP,Galt,Sacramento,California,95632,10930 Boessow Road,solar,2.9,2.9,2.9,Solar = 2.9 MW,Solar Photovoltaic,"EIA-860, EIA-860M and EIA-923",202108,38.253056,-121.278888,POINT Z (-121.2788880000001 38.253056000000136 0),
57671,SMUD at Fleshman,"Sacramento PV Energy, LLC",56995,IPP Non-CHP,Galt,Sacramento,California,95632,9690 Kost Road,solar,2.9,2.9,2.9,Solar = 2.9 MW,Solar Photovoltaic,"EIA-860, EIA-860M and EIA-923",202108,38.237778,-121.3375,POINT Z (-121.33750000000009 38.23777800000006 0),
57673,Macys Goodyear,"Macys Corporate Services, Inc",56998,IPP Non-CHP,Goodyear,Maricopa,Arizona,85338,16575 W. Commerce Dr.,solar,3.5,3.5,3.5,Solar = 3.5 MW,Solar Photovoltaic,"EIA-860, EIA-860M and EIA-923",202108,33.409063,-112.414596,POINT Z (-112.4145960000001 33.409063000000124 0),
57674,Indian Orchard PV Facility,Western Massachusetts Electric Company,56999,Electric Utility,Springfield,Hampden,Massachusetts,1151,225 Goodwin Street,solar,2.3,2.3,2.3,Solar = 2.3 MW,Solar Photovoltaic,"EIA-860, EIA-860M and EIA-923",202108,42.151389,-72.498889,POINT Z (-72.49888900000002 42.15138900000013 0),
57676,Silver Lake Solar Photovoltaic Facility,Western Massachusetts Electric Company,56999,Electric Utility,Pittsfield,Berkshire,Massachusetts,1201,75 Silver Lake Boulevard,solar,1.8,1.8,1.8,Solar = 1.8 MW,Solar Photovoltaic,"EIA-860, EIA-860M and EIA-923",202108,42.4525,-73.2403,POINT Z (-73.24029999999999 42.45250000000015 0),
57677,"Murphy Farm Power, LLC","Murphy Farm Power, LLC",57001,IPP Non-CHP,Culberson,Cherokee,North Carolina,28903,160 Old Forge Road,solar,1,0.9,0.9,Solar = 0.9 MW,Solar Photovoltaic,"EIA-860, EIA-860M and EIA-923",202108,34.999167,-84.157254,POINT Z (-84.15725400000007 34.99916700000015 0),
57680,Arlington Valley Solar Energy II,"CD Arevon USA, Inc.",61230,IPP Non-CHP,Arlington,Maricopa,Arizona,85326,South of Elliot Road and west,solar,129,125.4,125.4,Solar = 125.4 MW,Solar Photovoltaic,"EIA-860, EIA-860M and EIA-923",202108,33.305,-112.833888,POINT Z (-112.83388800000002 33.30500000000014 0),
57681,City of Boulder WWTP,"SunE NLB-2, LLC",57005,IPP Non-CHP,Boulder,Boulder,Colorado,80301,4049 75th Street,solar,1,0.9,0.9,Solar = 0.9 MW,Solar Photovoltaic,"EIA-860, EIA-860M and EIA-923",202108,40.048025,-105.180327,POINT Z (-105.18032700000006 40.04802500000014 0),
57682,City of Madera WWTP,"SunE GIL1, LLC",57006,IPP Non-CHP,Madera,Madera,California,93637,13048 Road 21  1/2,solar,1.2,1,1,Solar = 1 MW,Solar Photovoltaic,"EIA-860, EIA-860M and EIA-923",202108,36.9408,-120.1572,POINT Z (-120.15720000000012 36.94080000000011 0),
57683,"Staples La Mirada, CA","SunE WF3-ST Holdings, LLC",57007,IPP Non-CHP,La Mirada,Los Angeles,California,90638,16501 Trojan Way,solar,1.1,0.9,0.9,Solar = 0.9 MW,Solar Photovoltaic,"EIA-860, EIA-860M and EIA-923",202108,33.881667,-118.0175,POINT Z (-118.01750000000011 33.88166700000007 0),
57685,Rinehart,Humphrey Realty,59184,IPP Non-CHP,Lake Mary,Seminole,Florida,32746,400 Rinehart Road,solar,10,10,10,Solar = 10 MW,Solar Photovoltaic,"EIA-860, EIA-860M and EIA-923",202108,28.770601,-81.353336,POINT Z (-81.35333600000004 28.77060100000012 0),
57687,"CS Murphy Point, LLC","CS Murphy Point, LLC",57011,IPP Non-CHP,Murphy,Cherokee,North Carolina,28906,70 Wingate Road,solar,1,0.9,0.9,Solar = 0.9 MW,Solar Photovoltaic,"EIA-860, EIA-860M and EIA-923",202108,34.989539,-84.166197,POINT Z (-84.16619700000003 34.98953900000009 0),
57695,Topaz Solar Farm,Topaz Solar Farms LLC,59874,IPP Non-CHP,Santa Margarita,San Luis Obispo,California,93453,10400 Helios Way,solar,585.9,585.9,585.9,Solar = 585.9 MW,Solar Photovoltaic,"EIA-860, EIA-860M and EIA-923",202108,35.405556,-120.068611,POINT Z (-120.06861100000013 35.405556000000104 0),
57697,Aerojet I,"Altus Power America Management, LLC",60281,IPP Non-CHP,Rancho Cordova,Sacramento,California,95670,Aerojet Rd & White Rock Rd,solar,3,3,3,Solar = 3 MW,Solar Photovoltaic,"EIA-860, EIA-860M and EIA-923",202108,38.613508,-121.162879,POINT Z (-121.16287900000013 38.61350800000007 0),
57698,Aerojet II,"Altus Power America Management, LLC",60281,IPP Non-CHP,Rancho Cordova,Sacramento,California,95670,Aerojet Rd & White Rock Rd,solar,2.7,2.7,2.7,Solar = 2.7 MW,Solar Photovoltaic,"EIA-860, EIA-860M and EIA-923",202108,38.6086,-121.1703,POINT Z (-121.17030000000005 38.60860000000013 0),
57699,Webberville Solar Project,FRV AE Solar LLC,57021,IPP Non-CHP,Manor,Travis,Texas,78653,18580 FM 969,solar,30,30,30,Solar = 30 MW,Solar Photovoltaic,"EIA-860, EIA-860M and EIA-923",202108,30.238492,-97.508812,POINT Z (-97.50881200000009 30.2384920000001 0),
57707,Mesquite Solar 1,Consolidated Edison Development Inc.,56769,IPP Non-CHP,Tonopah,Maricopa,Arizona,85354,39903 W. Elliot Road,solar,170,170,170,Solar = 170 MW,Solar Photovoltaic,"EIA-860, EIA-860M and EIA-923",202108,33.341833,-112.904028,POINT Z (-112.90402800000005 33.3418330000001 0),
57708,Catalina Solar LLC,"EDF Renewable Asset Holdings, Inc.",57170,IPP Non-CHP,Rosamond,Kern,California,93560,1232 Catalina rd,solar,110,110,110,Solar = 110 MW,Solar Photovoltaic,"EIA-860, EIA-860M and EIA-923",202108,34.938261,-118.334492,POINT Z (-118.33449200000011 34.93826100000014 0),
57722,North Palm Springs 4A,Greenbacker Renewable Energy Corporation,60025,IPP Non-CHP,Palm Springs,Riverside,California,92240,19th Ave and Karen Rd,solar,4,4,4,Solar = 4 MW,Solar Photovoltaic,"EIA-860, EIA-860M and EIA-923",202108,33.909722,-116.5625,POINT Z (-116.56250000000009 33.909722000000095 0),
57723,"Johnson Matthey, Inc. Solar","Constellation Solar New Jersey II, LLC",56976,IPP Non-CHP,Paulsboro,Gloucester,New Jersey,8066,240 Mantua Grove Road,solar,4,4,4,Solar = 4 MW,Solar Photovoltaic,"EIA-860, EIA-860M and EIA-923",202108,39.825278,-75.219722,POINT Z (-75.21972199999999 39.82527800000013 0),
57724,NJMC Landfill,Public Service Elec & Gas Co,15477,Electric Utility,Kearny,Hudson,New Jersey,7032,932 Bellville Turnpike NJMC 1A,solar,2.5,2.5,2.5,Solar = 2.5 MW,Solar Photovoltaic,"EIA-860, EIA-860M and EIA-923",202108,40.750833,-74.11,POINT Z (-74.11000000000006 40.750833000000114 0),
57726,Summit Associates,Public Service Elec & Gas Co,15477,Electric Utility,Edison,Middlesex,New Jersey,8818,45 Fernwood Ave. & 110 Fieldcr,solar,1.9,1.9,1.9,Solar = 1.9 MW,Solar Photovoltaic,"EIA-860, EIA-860M and EIA-923",202108,40.5003,-74.3536,POINT Z (-74.35360000000006 40.500300000000145 0),
57727,BlackRock-Matrix,Public Service Elec & Gas Co,15477,Electric Utility,South Brunswick,Middlesex,New Jersey,8810,140 Docks Corner Rd.,solar,2.5,2.5,2.5,Solar = 2.5 MW,Solar Photovoltaic,"EIA-860, EIA-860M and EIA-923",202108,40.3622,-74.4797,POINT Z (-74.47970000000004 40.36220000000009 0),
57728,Mill Creek Solar,Public Service Elec & Gas Co,15477,Electric Utility,Burlington,Burlington,New Jersey,8016,600 Irick Road,solar,3.5,3.5,3.5,Solar = 3.5 MW,Solar Photovoltaic,"EIA-860, EIA-860M and EIA-923",202108,40.031388,-74.824722,POINT Z (-74.82472200000007 40.0313880000002 0),
57733,Benjamin Moore & Co. Solar,"Constellation Solar New Jersey, LLC",57044,Commercial Non-CHP,Mount Olive,Morris,New Jersey,7828,360 US Route 206,solar,1.4,1.4,1.4,Solar = 1.4 MW,Solar Photovoltaic,"EIA-860, EIA-860M and EIA-923",202108,40.825556,-74.714722,POINT Z (-74.714722 40.82555600000018 0),
57734,Cherry Hill,NFI Solar LLC,57049,IPP Non-CHP,Cherry Hill,Camden,New Jersey,8003,1515 Burnt Mill Rd,solar,1.1,1.1,1.1,Solar = 1.1 MW,Solar Photovoltaic,"EIA-860, EIA-860M and EIA-923",202108,39.876111,-75.008611,POINT Z (-75.00861100000007 39.876111000000094 0),
57736,SPS1 Dollarhide,"SunE SPS1, LLC",57055,IPP Non-CHP,Jal,Lea,New Mexico,88252,Willis Road,solar,10,10,10,Solar = 10 MW,Solar Photovoltaic,"EIA-860, EIA-860M and EIA-923",202108,32.12743,-103.137825,POINT Z (-103.13782500000008 32.12743000000016 0),
57737,SPS2 Jal,"SunE SPS2, LLC",57056,IPP Non-CHP,Jal,Lea,New Mexico,88252,74 Flying E Road,solar,10,10,10,Solar = 10 MW,Solar Photovoltaic,"EIA-860, EIA-860M and EIA-923",202108,32.183611,-103.183056,POINT Z (-103.18305600000006 32.18361100000007 0),
57738,SPS3 Lea,"SunE SPS3, LLC",57057,IPP Non-CHP,Eunice,Lea,New Mexico,88231,NM Highway 176,solar,10,10,10,Solar = 10 MW,Solar Photovoltaic,"EIA-860, EIA-860M and EIA-923",202108,32.469722,-103.323333,POINT Z (-103.32333300000009 32.469722000000104 0),
57739,SPS4 Monument,"SunE SPS4, LLC",57059,IPP Non-CHP,Monument,Lea,New Mexico,88240,Maddox Road,solar,10.1,10.1,10.1,Solar = 10.1 MW,Solar Photovoltaic,"EIA-860, EIA-860M and EIA-923",202108,32.681944,-103.303611,POINT Z (-103.30361100000009 32.6819440000001 0),
57740,SPS5 Hopi,"SunE SPS5, LLC",57058,IPP Non-CHP,Carlsbad,Eddy,New Mexico,88220,800 W. Derrick Road,solar,10.1,10.1,10.1,Solar = 10.1 MW,Solar Photovoltaic,"EIA-860, EIA-860M and EIA-923",202108,32.345556,-104.234722,POINT Z (-104.23472200000003 32.345556000000116 0),
57742,Vineland Headquarters,NFI Solar LLC,57049,IPP Non-CHP,Vineland,Cumberland,New Jersey,8360,71 W Park Avenue,solar,1.1,1.1,1.1,Solar = 1.1 MW,Solar Photovoltaic,"EIA-860, EIA-860M and EIA-923",202108,39.490271,-75.037391,POINT Z (-75.03739100000001 39.49027100000009 0),
57743,North Palm Springs 1A,Greenbacker Renewable Energy Corporation,60025,IPP Non-CHP,Palm Springs,Riverside,California,92240,Dillon Rd & Worsley Rd,solar,2.5,2.4,2.4,Solar = 2.4 MW,Solar Photovoltaic,"EIA-860, EIA-860M and EIA-923",202108,33.924167,-116.593333,POINT Z (-116.59333300000006 33.92416700000011 0),
57745,The City of Vineland at West Vineland,"Constellation Solar New Jersey, LLC",57044,IPP Non-CHP,Vineland,Cumberland,New Jersey,8360,1776 South Mill Rd.,solar,3.7,3.7,3.7,Solar = 3.7 MW,Solar Photovoltaic,"EIA-860, EIA-860M and EIA-923",202108,39.462376,-75.070039,POINT Z (-75.07003900000004 39.46237600000013 0),
57746,The City of Vineland at North Vineland,"Constellation Solar New Jersey, LLC",57044,IPP Non-CHP,Vineland,Cumberland,New Jersey,8360,1310 North Main Rd.,solar,2.3,2.3,2.3,Solar = 2.3 MW,Solar Photovoltaic,"EIA-860, EIA-860M and EIA-923",202108,39.505034,-74.997703,POINT Z (-74.99770300000003 39.50503400000017 0),
57747,FedEx Field Solar Facility,NRG Solar Arrowhead LLC,57052,IPP Non-CHP,Landover,Prince Georges,Maryland,20785,1600 FedEx Way,solar,2,2,2,Solar = 2 MW,Solar Photovoltaic,"EIA-860, EIA-860M and EIA-923",202108,38.907778,-76.864444,POINT Z (-76.864444 38.90777800000017 0),
57750,Maple Solar,NFI Solar LLC,57049,IPP Non-CHP,Vineland,Cumberland,New Jersey,8361,2363 Maple Avenue,solar,2.4,2.4,2.4,Solar = 2.4 MW,Solar Photovoltaic,"EIA-860, EIA-860M and EIA-923",202108,39.4875,-74.980833,POINT Z (-74.98083300000005 39.487500000000175 0),
57753,SMUD at Lawrence,"Sacramento PV Energy, LLC",56995,IPP Non-CHP,Elk Grove,Sacramento,California,95757,6150 Point Pleasant Road,solar,1,1,1,Solar = 1 MW,Solar Photovoltaic,"EIA-860, EIA-860M and EIA-923",202108,38.338868,-121.431342,POINT Z (-121.43134200000009 38.33886800000008 0),
57758,Mount Saint Mary's,Constellation Solar Horizons LLC,57065,IPP Non-CHP,Emmitsburg,Frederick,Maryland,21727,16300 Old Emmitsburg Road,solar,13.7,13.7,13.7,Solar = 13.7 MW,Solar Photovoltaic,"EIA-860, EIA-860M and EIA-923",202108,39.675,-77.345,POINT Z (-77.34500000000006 39.67500000000014 0),
57764,Naval Air Weapons Station China Lake,Goldman Sachs Renewable Power Group,61944,Commercial Non-CHP,Ridgecrest,Kern,California,93555,101-115 E Inyokern Rd,solar,11.1,11.1,11.1,Solar = 11.1 MW,Solar Photovoltaic,"EIA-860, EIA-860M and EIA-923",202108,35.68771,-117.68137,POINT Z (-117.68137000000007 35.687710000000195 0),
57765,Arizona Western College PV,AES Distributed Energy,61012,IPP Non-CHP,Yuma,Yuma,Arizona,85365,2020 S. Avenue 8E,solar,4.7,4.7,4.7,Solar = 4.7 MW,Solar Photovoltaic,"EIA-860, EIA-860M and EIA-923",202108,32.687778,-114.49611,POINT Z (-114.4961100000001 32.687778000000115 0),
57768,Longwood Gardens,Ecogy Pennsylvania Systems LLC,57078,IPP Non-CHP,Kennett Square,Chester,Pennsylvania,19348,1000 E. Baltimore Pike,solar,1.3,1.3,1.3,Solar = 1.3 MW,Solar Photovoltaic,"EIA-860, EIA-860M and EIA-923",202108,39.866667,-75.667777,POINT Z (-75.66777700000004 39.86666700000008 0),
57772,Perdue Bridgeville Photovoltaic,Terraform Arcadia,63249,IPP Non-CHP,Bridgeville,Sussex,Delaware,19933,16447 Adams Road,solar,1.3,1.3,1.3,Solar = 1.3 MW,Solar Photovoltaic,"EIA-860, EIA-860M and EIA-923",202108,38.757689,-75.602031,POINT Z (-75.60203100000004 38.757689000000134 0),
57773,Palo Verde College,SSA Solar of CA 2 LLC,58315,Commercial Non-CHP,Blythe,Riverside,California,92225,1 College Drive,solar,1.2,1.2,1.2,Solar = 1.2 MW,Solar Photovoltaic,"EIA-860, EIA-860M and EIA-923",202108,33.661667,-114.651667,POINT Z (-114.65166700000009 33.6616670000001 0),
57776,FedEx Woodbridge,SSA Solar of NJ LLC,58316,IPP Non-CHP,Keasbey,Middlesex,New Jersey,8832,6000 Riverside Dr,solar,2.4,2.4,2.4,Solar = 2.4 MW,Solar Photovoltaic,"EIA-860, EIA-860M and EIA-923",202108,40.506358,-74.323519,POINT Z (-74.32351900000003 40.50635800000013 0),
57777,RE Dillard 1 LLC,Gamma Genco CV LLC,62948,IPP Non-CHP,Sloughhouse,Sacramento,California,95693,7786 Dillard Rd,solar,3,3,3,Solar = 3 MW,Solar Photovoltaic,"EIA-860, EIA-860M and EIA-923",202108,38.468611,-121.181944,POINT Z (-121.18194400000012 38.468611000000095 0),
57778,RE Kammerer 1 LLC,Gamma Genco CV LLC,62948,IPP Non-CHP,Elk Grove,Sacramento,California,95757,8224 Kammerer Rd,solar,5,5,5,Solar = 5 MW,Solar Photovoltaic,"EIA-860, EIA-860M and EIA-923",202108,38.365053,-121.381101,POINT Z (-121.3811010000001 38.36505300000011 0),
57779,RE Dillard 2 LLC,Gamma Genco CV LLC,62948,IPP Non-CHP,Sloughhouse,Sacramento,California,95693,7786 Dillard Rd,solar,3,3,3,Solar = 3 MW,Solar Photovoltaic,"EIA-860, EIA-860M and EIA-923",202108,38.466111,-121.177778,POINT Z (-121.1777780000001 38.46611100000012 0),
57780,RE Kammerer 2 LLC,Gamma Genco CV LLC,62948,IPP Non-CHP,Elk Grove,Sacramento,California,95757,8224 Kammerer Rd,solar,5,5,5,Solar = 5 MW,Solar Photovoltaic,"EIA-860, EIA-860M and EIA-923",202108,38.365053,-121.381101,POINT Z (-121.3811010000001 38.36505300000011 0),
57781,RE Dillard 3 LLC,Gamma Genco CV LLC,62948,IPP Non-CHP,Sloughhouse,Sacramento,California,95693,7786 Dillard Rd,solar,3,3,3,Solar = 3 MW,Solar Photovoltaic,"EIA-860, EIA-860M and EIA-923",202108,38.461944,-121.180278,POINT Z (-121.1802780000001 38.46194400000014 0),
57782,RE Kammerer 3 LLC,Gamma Genco CV LLC,62948,IPP Non-CHP,Elk Grove,Sacramento,California,95757,8224 Kammerer Rd,solar,5,5,5,Solar = 5 MW,Solar Photovoltaic,"EIA-860, EIA-860M and EIA-923",202108,38.365053,-121.381101,POINT Z (-121.3811010000001 38.36505300000011 0),
57783,RE Bruceville 1 LLC,Gamma Genco CV LLC,62948,IPP Non-CHP,Elk Grove,Sacramento,California,95757,7334 Eschinger Road,solar,5,5,5,Solar = 5 MW,Solar Photovoltaic,"EIA-860, EIA-860M and EIA-923",202108,38.3475,-121.412777,POINT Z (-121.41277700000003 38.347500000000174 0),
57784,RE Bruceville 2 LLC,Gamma Genco CV LLC,62948,IPP Non-CHP,Elk Grove,Sacramento,California,95757,7334 Eschinger Road,solar,5,5,5,Solar = 5 MW,Solar Photovoltaic,"EIA-860, EIA-860M and EIA-923",202108,38.3475,-121.412777,POINT Z (-121.41277700000003 38.347500000000174 0),
57785,RE Bruceville 3 LLC,Gamma Genco CV LLC,62948,IPP Non-CHP,Elk Grove,Sacramento,California,95757,7334 Eschinger Road,solar,5,5,5,Solar = 5 MW,Solar Photovoltaic,"EIA-860, EIA-860M and EIA-923",202108,38.3475,-121.412777,POINT Z (-121.41277700000003 38.347500000000174 0),
57790,RE Bagdad Solar I LLC,RE Bagdad Solar 1 LLC,57107,IPP Non-CHP,Bagdad,Yavapai,Arizona,86321,Terminus of Airport Road,solar,14.9,14.9,14.9,Solar = 14.9 MW,Solar Photovoltaic,"EIA-860, EIA-860M and EIA-923",202108,34.585833,-113.177222,POINT Z (-113.17722200000007 34.58583300000008 0),
57795,RE Ajo 1 LLC,RE Ajo 1 LLC,57112,IPP Non-CHP,Ajo,Pima,Arizona,85321,100 Pipeline Road,solar,4.5,4.5,4.5,Solar = 4.5 MW,Solar Photovoltaic,"EIA-860, EIA-860M and EIA-923",202108,32.367013,-112.831401,POINT Z (-112.83140100000008 32.36701300000005 0),
57796,Golden Springs Building C-1,Golden Springs Development Company LLC,57104,IPP Non-CHP,Santa Fe Springs,Los Angeles,California,90670,12816 Alder Drive,solar,1.2,1.2,1.2,Solar = 1.2 MW,Solar Photovoltaic,"EIA-860, EIA-860M and EIA-923",202108,33.914167,-118.053611,POINT Z (-118.0536110000001 33.91416700000019 0),
57797,Golden Springs Building D,Golden Springs Development Company LLC,57104,IPP Non-CHP,Santa Fe Springs,Los Angeles,California,90670,12935 Leffingwell Ave,solar,1.3,1.3,1.3,Solar = 1.3 MW,Solar Photovoltaic,"EIA-860, EIA-860M and EIA-923",202108,33.911944,-118.052222,POINT Z (-118.05222200000009 33.91194400000015 0),
57799,"ISH Solar Central, LLC",SunEdison LLC,59139,IPP Non-CHP,Bayville,Monmouth,New Jersey,8721,539 Forest Hills Parkway,solar,1.4,1.4,1.4,Solar = 1.4 MW,Solar Photovoltaic,"EIA-860, EIA-860M and EIA-923",202108,40.2675,-74.278611,POINT Z (-74.27861099999998 40.26750000000007 0),
57805,William Paterson University,Nautilus Solar WPU LLC,57124,Commercial Non-CHP,Wayne,Passaic,New Jersey,7470,300 Pompton Road,solar,1.4,1.4,1.4,Solar = 1.4 MW,Solar Photovoltaic,"EIA-860, EIA-860M and EIA-923",202108,40.952084,-74.195502,POINT Z (-74.19550200000003 40.95208400000014 0),
57806,RE Dillard 4 LLC,Gamma Genco CV LLC,62948,IPP Non-CHP,Sloughhouse,Sacramento,California,95693,7786 Dillard Road,solar,0.4,0.4,0.4,Solar = 0.4 MW,Solar Photovoltaic,"EIA-860, EIA-860M and EIA-923",202108,38.461944,-121.180278,POINT Z (-121.1802780000001 38.46194400000014 0),
57815,Titusville Solar,Janssen Pharmaceutical Co,57130,Commercial Non-CHP,Titusville,Mercer,New Jersey,8560,Trenton and Harbourton,solar,4.1,4.1,4.1,Solar = 4.1 MW,Solar Photovoltaic,"EIA-860, EIA-860M and EIA-923",202108,40.292778,-74.847222,POINT Z (-74.84722200000006 40.292778000000105 0),
57816,RE McKenzie 1 LLC,Gamma Genco CV LLC,62948,IPP Non-CHP,Galt,Sacramento,California,95632,12498 McKenzie Rd,solar,5,5,5,Solar = 5 MW,Solar Photovoltaic,"EIA-860, EIA-860M and EIA-923",202108,38.302594,-121.295819,POINT Z (-121.29581900000011 38.30259400000009 0),
57817,RE McKenzie 2 LLC,Gamma Genco CV LLC,62948,IPP Non-CHP,Galt,Sacramento,California,95632,12498 McKenzie Rd,solar,5,5,5,Solar = 5 MW,Solar Photovoltaic,"EIA-860, EIA-860M and EIA-923",202108,38.302594,-121.295819,POINT Z (-121.29581900000011 38.30259400000009 0),
57818,RE McKenzie 3 LLC,Gamma Genco CV LLC,62948,IPP Non-CHP,Galt,Sacramento,California,95632,12498 McKenzie Rd,solar,5,5,5,Solar = 5 MW,Solar Photovoltaic,"EIA-860, EIA-860M and EIA-923",202108,38.302594,-121.295819,POINT Z (-121.29581900000011 38.30259400000009 0),
57819,RE McKenzie 4 LLC,Gamma Genco CV LLC,62948,IPP Non-CHP,Galt,Sacramento,California,95632,12498 McKenzie Rd,solar,5,5,5,Solar = 5 MW,Solar Photovoltaic,"EIA-860, EIA-860M and EIA-923",202108,38.302594,-121.295819,POINT Z (-121.29581900000011 38.30259400000009 0),
57820,RE McKenzie 5 LLC,Gamma Genco CV LLC,62948,IPP Non-CHP,Galt,Sacramento,California,95632,12498 McKenzie Rd,solar,5,5,5,Solar = 5 MW,Solar Photovoltaic,"EIA-860, EIA-860M and EIA-923",202108,38.302594,-121.295819,POINT Z (-121.29581900000011 38.30259400000009 0),
57821,RE McKenzie 6 LLC,Gamma Genco CV LLC,62948,IPP Non-CHP,Galt,Sacramento,California,95632,12498 McKenzie Rd,solar,5,5,5,Solar = 5 MW,Solar Photovoltaic,"EIA-860, EIA-860M and EIA-923",202108,38.302594,-121.295819,POINT Z (-121.29581900000011 38.30259400000009 0),
57827,Dinuba Wastewater Treatment Plant,"Sustainable Power Group, LLC",58661,Commercial Non-CHP,Dinuba,Tulare,California,93618,6675 Avenue 412,solar,1,1,1,Solar = 1 MW,Solar Photovoltaic,"EIA-860, EIA-860M and EIA-923",202108,36.538056,-119.426388,POINT Z (-119.42638800000006 36.538056000000076 0),
57831,Heliocentric,Heliocentric LLC,57154,IPP Non-CHP,Palmdale,Los Angeles,California,93550,8875 E Avenue L-8,solar,1.5,1.3,1.3,Solar = 1.3 MW,Solar Photovoltaic,"EIA-860, EIA-860M and EIA-923",202108,34.65434,-117.971004,POINT Z (-117.97100400000011 34.65434000000008 0),
57836,L-8 Solar Project,L-8 Solar Project LLC,57159,IPP Non-CHP,Palmdale,Los Angeles,California,93550,8871 E Avenue L-8,solar,1.5,1.3,1.3,Solar = 1.3 MW,Solar Photovoltaic,"EIA-860, EIA-860M and EIA-923",202108,34.654347,-117.973103,POINT Z (-117.97310300000008 34.654347000000115 0),
57838,Dartmouth II Solar,Consolidated Edison Development Inc.,56769,IPP Non-CHP,Dartmouth,Bristol,Massachusetts,2747,1154 North Hixville Road,solar,2,2,2,Solar = 2 MW,Solar Photovoltaic,"EIA-860, EIA-860M and EIA-923",202108,41.680556,-71.030833,POINT Z (-71.03083300000004 41.68055600000019 0),
57840,ISH Solar Hospital SDMC,SunEdison LLC,59139,IPP Non-CHP,San Diego,San Diego,California,92120,4647 Zion Ave,solar,1.1,1.1,1.1,Solar = 1.1 MW,Solar Photovoltaic,"EIA-860, EIA-860M and EIA-923",202108,32.791667,-117.095277,POINT Z (-117.09527700000004 32.791667000000096 0),
57841,ISH Solar Hospital Downey,SunEdison LLC,59139,IPP Non-CHP,Downey,Los Angeles,California,90242,12254 Bellflower Blvd,solar,1.1,1.1,1.1,Solar = 1.1 MW,Solar Photovoltaic,"EIA-860, EIA-860M and EIA-923",202108,33.921667,-118.124444,POINT Z (-118.12444400000014 33.92166700000012 0),
57848,WC Landfill Energy LLC,Goldman Sachs Renewable Power Group,61944,IPP Non-CHP,Oxford,Warren,New Jersey,7863,500 Mount Pisgah Avenue,solar,1,1,1,Solar = 1 MW,Solar Photovoltaic,"EIA-860, EIA-860M and EIA-923",202108,40.831012,-75.015775,POINT Z (-75.01577500000002 40.83101200000008 0),
57849,Green Acres Solar Facility 1,SEAI Elk Grove LLC,57177,IPP Non-CHP,Elk Grove,Sacramento,California,95757,3705 Twin Cities Road,solar,3,2.8,2.8,Solar = 2.8 MW,Solar Photovoltaic,"EIA-860, EIA-860M and EIA-923",202108,38.282021,-121.464676,POINT Z (-121.46467600000007 38.282021000000086 0),
57850,Green Acres Solar Facility 2,SEAI Elk Grove LLC,57177,IPP Non-CHP,Elk Grove,Sacramento,California,95757,3705 Twin Cities Road,solar,1,0.9,0.9,Solar = 0.9 MW,Solar Photovoltaic,"EIA-860, EIA-860M and EIA-923",202108,38.28357,-121.461264,POINT Z (-121.46126400000009 38.28357000000013 0),
57856,Univ of California San Diego Solar,University of California San Diego,56918,Commercial Non-CHP,La Jolla,San Diego,California,92093,9500 Gilman Drive (0908U),solar,1.2,1.2,1.2,Solar = 1.2 MW,Solar Photovoltaic,"EIA-860, EIA-860M and EIA-923",202108,32.874379,-117.238927,POINT Z (-117.23892700000013 32.874379000000054 0),
57859,Moapa Southern Paiute,"CD Arevon USA, Inc.",61230,IPP Non-CHP,Moapa,Clark,Nevada,89025,1 Lincoln Street,solar,250,250,250,Solar = 250 MW,Solar Photovoltaic,"EIA-860, EIA-860M and EIA-923",202108,36.52995,-114.770308,POINT Z (-114.77030800000004 36.529950000000106 0),
57860,Industry MetroLink PV 1,City of Industry,57194,Electric Utility,Industry,Los Angeles,California,91744,600 Brea Canyon Road,solar,1.5,1.5,1.5,Solar = 1.5 MW,Solar Photovoltaic,"EIA-860, EIA-860M and EIA-923",202108,34.008661,-117.845603,POINT Z (-117.84560300000008 34.0086610000001 0),
57863,McKee City Solar Phase 2,Goldman Sachs Renewable Power Group,61944,IPP Non-CHP,Egg Harbor Township,Atlantic,New Jersey,8234,215 Cates Road,solar,2.4,2.4,2.4,Solar = 2.4 MW,Solar Photovoltaic,"EIA-860, EIA-860M and EIA-923",202108,39.421944,-74.639167,POINT Z (-74.63916700000007 39.421944000000074 0),
57864,Stockton Athletic Center,Goldman Sachs Renewable Power Group,61944,IPP Non-CHP,Pomona,Atlantic,New Jersey,8240,101 Vera King Farris Drive,solar,1.4,1.4,1.4,Solar = 1.4 MW,Solar Photovoltaic,"EIA-860, EIA-860M and EIA-923",202108,39.488443,-74.535263,POINT Z (-74.53526300000004 39.48844300000013 0),
57868,L'Oreal Piscataway,Marina Energy LLC,56997,IPP Non-CHP,New Brunswick,Middlesex,New Jersey,8854,81 New England Avenue,solar,2.3,1.8,1.8,Solar = 1.8 MW,Solar Photovoltaic,"EIA-860, EIA-860M and EIA-923",202108,40.554341,-74.468014,POINT Z (-74.46801400000003 40.55434100000011 0),
57869,Heller Industrial Parks,Marina Energy LLC,56997,IPP Non-CHP,Dayton,Middlesex,New Jersey,8810,1 Industrial Road,solar,4.6,4.6,4.6,Solar = 4.6 MW,Solar Photovoltaic,"EIA-860, EIA-860M and EIA-923",202108,40.373898,-74.489236,POINT Z (-74.48923600000003 40.373898000000146 0),
57870,Castle Rock Vineyards,Castle Rock Cooling,57213,Commercial Non-CHP,Delano,Tulare,California,93215,501 Richgrove Dr.,solar,1,1,1,Solar = 1 MW,Solar Photovoltaic,"EIA-860, EIA-860M and EIA-923",202108,35.801111,-119.110556,POINT Z (-119.1105560000001 35.80111100000007 0),
57871,2555 E Olympic Bl,Los Angeles Department of Water & Power,11208,Commercial Non-CHP,Los Angeles,Los Angeles,California,90023,2555 E Olympic Bl,solar,1,1,1,Solar = 1 MW,Solar Photovoltaic,"EIA-860, EIA-860M and EIA-923",202108,34.026944,-118.224167,POINT Z (-118.22416700000005 34.0269440000001 0),
57879,Perdue Salisbury Photovoltaic,Terraform Arcadia,63249,IPP Non-CHP,Salisbury,Wicomico,Maryland,21801,31149 Old Ocean City Road,solar,1,1,1,Solar = 1 MW,Solar Photovoltaic,"EIA-860, EIA-860M and EIA-923",202108,38.373611,-75.535278,POINT Z (-75.53527800000003 38.37361100000006 0),
57882,Baldock Solar Highway,Portland General Electric Co,15248,Electric Utility,Aurora,Clackamas,Oregon,97002,24300 NE I-5,solar,1.7,1.7,1.7,Solar = 1.7 MW,Solar Photovoltaic,"EIA-860, EIA-860M and EIA-923",202108,45.269444,-122.771667,POINT Z (-122.7716670000001 45.26944400000016 0),
57883,Queen Creek Solar Farm,Siete Solar LLC,57219,IPP Non-CHP,Queen Creek,Maricopa,Arizona,85142,20214 South 220th Street,solar,19,18.6,18.6,Solar = 18.6 MW,Solar Photovoltaic,"EIA-860, EIA-860M and EIA-923",202108,33.2675,-111.612222,POINT Z (-111.61222200000005 33.26750000000014 0),
57891,Guernsey Solar Station,Pacific Gas & Electric Co.,14328,Electric Utility,Hanford,Kings,California,93230,21024 10 1/2 Ave.,solar,20,20,20,Solar = 20 MW,Solar Photovoltaic,"EIA-860, EIA-860M and EIA-923",202108,36.163889,-119.650556,POINT Z (-119.6505560000001 36.16388900000012 0),
57892,Gates Solar Station,Pacific Gas & Electric Co.,14328,Electric Utility,Huron,Fresno,California,93234,17115 W. Gale Ave.,solar,20,20,20,Solar = 20 MW,Solar Photovoltaic,"EIA-860, EIA-860M and EIA-923",202108,36.176389,-120.114167,POINT Z (-120.11416700000004 36.17638900000015 0),
57895,Improvement Dst No. 4,Kern County Water Agency,57262,Commercial Non-CHP,Bakersfield,Kern,California,93308,811 Nadine Lane,solar,1.1,1.1,1.1,Solar = 1.1 MW,Solar Photovoltaic,"EIA-860, EIA-860M and EIA-923",202108,35.402778,-119.038611,POINT Z (-119.03861100000005 35.40277800000009 0),
57900,Solar Photovoltaic Project #48,Southern California Edison Co,17609,Electric Utility,Redlands,San Bernardino,California,92374,1651 California,solar,5,5,5,Solar = 5 MW,Solar Photovoltaic,"EIA-860, EIA-860M and EIA-923",202108,34.081111,-117.228056,POINT Z (-117.22805600000008 34.081111000000135 0),
57904,San Antonio West Solar Rooftop,SS San Antonio West LLC,57273,IPP Non-CHP,Chino,Riverside,California,91708,15710 San Antonio,solar,1.5,1.5,1.5,Solar = 1.5 MW,Solar Photovoltaic,"EIA-860, EIA-860M and EIA-923",202108,33.965617,-117.659059,POINT Z (-117.65905900000007 33.96561700000012 0),
57912,Grand Ridge Solar Farm,Invenergy Services LLC,49893,IPP Non-CHP,Marseilles,LaSalle,Illinois,61634,1450 E. 21st Road,solar,20,20,20,Solar = 20 MW,Solar Photovoltaic,"EIA-860, EIA-860M and EIA-923",202108,41.143421,-88.758341,POINT Z (-88.75834100000009 41.14342100000014 0),
57930,FRB Solar Farm,FRB Solar LLC,61055,IPP Non-CHP,Tucson,Pima,Arizona,85747,9070 South Rita Road,solar,1.9,1.9,1.9,Solar = 1.9 MW,Solar Photovoltaic,"EIA-860, EIA-860M and EIA-923",202108,32.108147,-110.824662,POINT Z (-110.82466200000012 32.108147000000145 0),
57931,Holyoke Solar Cooperative at Mueller,Holyoke Solar LLC,57309,IPP Non-CHP,Holyoke,Hampden,Massachusetts,1040,91 Mueller Road,solar,2.7,2.7,2.7,Solar = 2.7 MW,Solar Photovoltaic,"EIA-860, EIA-860M and EIA-923",202108,42.190909,-72.682421,POINT Z (-72.682421 42.19090900000007 0),
57933,Solar Star California II LLC,Solar Star California II LLC,58101,IPP Non-CHP,Sacramento,Sacramento,California,95824,6200 Franklin Boulevard,solar,2,2,2,Solar = 2 MW,Solar Photovoltaic,"EIA-860, EIA-860M and EIA-923",202108,38.516389,-121.47528,POINT Z (-121.47528000000005 38.51638900000022 0),
57934,Douglas Solar,Consolidated Edison Development Inc.,56769,IPP Non-CHP,Douglas,Worcester,Massachusetts,1516,6 Brookline Terrace,solar,2,2,2,Solar = 2 MW,Solar Photovoltaic,"EIA-860, EIA-860M and EIA-923",202108,42.06,-71.73,POINT Z (-71.73000000000002 42.060000000000166 0),
57939,Walmart Casa Grande,Tesla Inc.,60947,IPP Non-CHP,Casa Grande,Pinal,Arizona,85193,58 S Thornton Rd,solar,2,2,2,Solar = 2 MW,Solar Photovoltaic,"EIA-860, EIA-860M and EIA-923",202108,32.866837,-111.771751,POINT Z (-111.77175100000005 32.8668370000001 0),
57941,Town of Uxbridge MA at Commerce Dr,Constellation Solar Net Metering LLC,57318,IPP Non-CHP,Uxbridge,Worcester,Massachusetts,1569,71 Commerce Drive,solar,1.8,1.8,1.8,Solar = 1.8 MW,Solar Photovoltaic,"EIA-860, EIA-860M and EIA-923",202108,42.043889,-71.6175,POINT Z (-71.6175 42.04388900000011 0),
57942,Town of Norfolk MA at Medway Branch,Constellation Solar Massachusetts LLC,57319,IPP Non-CHP,Norfolk,Norfolk,Massachusetts,2056,33 Medway Branch Road,solar,1.2,1.2,1.2,Solar = 1.2 MW,Solar Photovoltaic,"EIA-860, EIA-860M and EIA-923",202108,42.127778,-71.340278,POINT Z (-71.34027800000001 42.12777800000013 0),
57948,NJ Oak Solar Plant,NJR Clean Energy Ventures Corporation,56990,IPP Non-CHP,Bridgetown,Cumberland,New Jersey,8320,616 Elmer Road,solar,10,10,10,Solar = 10 MW,Solar Photovoltaic,"EIA-860, EIA-860M and EIA-923",202108,39.380565,-75.188312,POINT Z (-75.18831199999998 39.38056500000009 0),
57951,Shore Point Solar,Shore Point Solar LLC,57328,IPP Non-CHP,Freehold,Monmouth,New Jersey,7728,100 Shore Point Drive,solar,1,1,1,Solar = 1 MW,Solar Photovoltaic,"EIA-860, EIA-860M and EIA-923",202108,40.245,-74.243333,POINT Z (-74.24333300000004 40.245000000000104 0),
57959,Desert Green Solar Farm LLC,Invenergy Services LLC,49893,IPP Non-CHP,Boulevard,San Diego,California,91905,40730 Old Highway 80,solar,6.3,6.3,6.3,Solar = 6.3 MW,Solar Photovoltaic,"EIA-860, EIA-860M and EIA-923",202108,33.27055,-116.34805,POINT Z (-116.34805000000007 33.27055000000017 0),
57970,Butte College Main Campus Solar,Butte-Glenn Community College District,57345,Commercial Non-CHP,Oroville,Butte,California,95965,3536 Butte Campus Drive,solar,3.5,3.6,3.6,Solar = 3.6 MW,Solar Photovoltaic,"EIA-860, EIA-860M and EIA-923",202108,39.648056,-121.644167,POINT Z (-121.64416700000008 39.648056000000125 0),
57982,Meridian Vineyards,CleanCapital,62060,IPP Non-CHP,Paso Robles,San Luis Obispo,California,93446,7000 E Highway 46,solar,1.1,1.1,1.1,Solar = 1.1 MW,Solar Photovoltaic,"EIA-860, EIA-860M and EIA-923",202108,35.670278,-120.566944,POINT Z (-120.5669440000001 35.67027800000013 0),
57985,SunE EPE2 LLC,SunE EPE2 LLC,57361,IPP Non-CHP,Las Cruces,Dona Ana,New Mexico,88007,1020 Crawford Boulevard,solar,12,13.6,13.6,Solar = 13.6 MW,Solar Photovoltaic,"EIA-860, EIA-860M and EIA-923",202108,32.251667,-106.913333,POINT Z (-106.91333300000008 32.25166700000009 0),
57986,SunE EPE1 LLC,SunE EPE1 LLC,57360,IPP Non-CHP,Chaparral,Dona Ana,New Mexico,88081,1122 Luna Drive,solar,10,11.3,11.3,Solar = 11.3 MW,Solar Photovoltaic,"EIA-860, EIA-860M and EIA-923",202108,32.034383,-106.340986,POINT Z (-106.34098600000007 32.034383000000105 0),
57989,Groveland Solar,Consolidated Edison Development Inc.,56769,IPP Non-CHP,Groveland,Essex,Massachusetts,1834,513 Main Street,solar,3.2,3.2,3.2,Solar = 3.2 MW,Solar Photovoltaic,"EIA-860, EIA-860M and EIA-923",202108,42.751111,-71.037222,POINT Z (-71.03722200000004 42.751111000000115 0),
57990,Shrewsbury Solar,Consolidated Edison Development Inc.,56769,IPP Non-CHP,Shrewsbury,Worcester,Massachusetts,1545,239 Cherry Street,solar,2.5,2.5,2.5,Solar = 2.5 MW,Solar Photovoltaic,"EIA-860, EIA-860M and EIA-923",202108,42.266111,-71.695833,POINT Z (-71.695833 42.26611100000013 0),
57992,Boston Scientific Solar,Consolidated Edison Solutions Inc,57365,IPP Non-CHP,Quincy,Norfolk,Massachusetts,2171,500 Commander Shea Boulevard,solar,1.1,1.1,1.1,Solar = 1.1 MW,Solar Photovoltaic,"EIA-860, EIA-860M and EIA-923",202108,42.293333,-71.033889,POINT Z (-71.03388900000007 42.2933330000001 0),
57993,"Desert Sunlight 300, LLC","NextEra Energy Desert Sunlight 300, LLC",58289,IPP Non-CHP,Desert Center,Riverside,California,92239,44810 Kaiser Rd,solar,313.7,313.7,313.7,Solar = 313.7 MW,Solar Photovoltaic,"EIA-860, EIA-860M and EIA-923",202108,33.823056,-115.393889,POINT Z (-115.39388900000007 33.82305600000017 0),
57994,Apple Data Center PV,"Apple, Inc",57369,Commercial Non-CHP,Maiden,Catawba,North Carolina,28650,5977 Startown Road,solar,21,20,20,Solar = 20 MW,Solar Photovoltaic,"EIA-860, EIA-860M and EIA-923",202108,35.588135,-81.25198,POINT Z (-81.25198000000005 35.58813500000017 0),
57997,Foothills Solar Plant Hybrid,Arizona Public Service Co,803,Electric Utility,Yuma,Yuma,Arizona,85367,Ave 12E and 13th Street,solar,35,35,35,Solar = 35 MW,Solar Photovoltaic,"EIA-860, EIA-860M and EIA-923",202108,32.64856,-114.428741,POINT Z (-114.42874100000007 32.648560000000046 0),
58002,Alpaugh North,Consolidated Edison Development Inc.,56769,IPP Non-CHP,Alpaugh,Tulare,California,93201,5149-A Avenue 60,solar,20,20,20,Solar = 20 MW,Solar Photovoltaic,"EIA-860, EIA-860M and EIA-923",202108,35.9025,-119.442778,POINT Z (-119.44277800000009 35.90250000000011 0),
58003,Alpaugh 50,Consolidated Edison Development Inc.,56769,IPP Non-CHP,Alpaugh,Tulare,California,93201,5149-B Avenue 60,solar,50,50,50,Solar = 50 MW,Solar Photovoltaic,"EIA-860, EIA-860M and EIA-923",202108,35.898333,-119.435278,POINT Z (-119.43527800000007 35.898333000000065 0),
58006,Salt Palace Solar Gen Plant,Wasatch View Solar LLC,57383,IPP Non-CHP,Salt Lake City,Salt Lake,Utah,84101,100 South West Temple,solar,1.3,1.3,1.3,Solar = 1.3 MW,Solar Photovoltaic,"EIA-860, EIA-860M and EIA-923",202108,40.767222,-111.895,POINT Z (-111.89500000000005 40.76722200000015 0),
58009,SunE CPS3 LLC,SunE CPS3 LLC,57386,IPP Non-CHP,Somerset,Bexar,Texas,78069,8719 S FM 2790,solar,10.6,10.6,10.6,Solar = 10.6 MW,Solar Photovoltaic,"EIA-860, EIA-860M and EIA-923",202108,29.221944,-98.669167,POINT Z (-98.66916700000006 29.22194400000012 0),
58010,WSMR I,Siemens Government Technologies Inc,57390,IPP Non-CHP,White Sands Missile,Dona Ana,New Mexico,88002,102 Headquarters Drive,solar,4.6,4.6,4.6,Solar = 4.6 MW,Solar Photovoltaic,"EIA-860, EIA-860M and EIA-923",202108,32.395833,-106.47722,POINT Z (-106.47722000000007 32.39583300000012 0),
58011,IKEA Savannah 490,IKEA Property Inc,57389,Commercial Non-CHP,Port Wentworth,Chatham,Georgia,31407,202 Little Hearst Parkway,solar,2.2,2.2,2.2,Solar = 2.2 MW,Solar Photovoltaic,"EIA-860, EIA-860M and EIA-923",202108,32.177535,-81.173775,POINT Z (-81.17377500000003 32.17753500000011 0),
58012,IKEA Tampa 042,IKEA Property Inc,57389,Commercial Non-CHP,Tampa,Hillsborough,Florida,33605,1103 N 22nd St.,solar,1,1,1,Solar = 1 MW,Solar Photovoltaic,"EIA-860, EIA-860M and EIA-923",202108,27.953889,-82.4325,POINT Z (-82.4325 27.953889000000093 0),
58013,IKEA Round Rock 027,IKEA Property Inc,57389,Commercial Non-CHP,Round Rock,Williamson,Texas,78664,1 IKEA Way,solar,1.4,1.3,1.3,Solar = 1.3 MW,Solar Photovoltaic,"EIA-860, EIA-860M and EIA-923",202108,30.557044,-97.690286,POINT Z (-97.69028600000006 30.55704400000008 0),
58014,IKEA Perryville 460,IKEA Property Inc,57389,Commercial Non-CHP,Perryville,Cecil,Maryland,21903,100 IKEA Way,solar,2.1,2,2,Solar = 2 MW,Solar Photovoltaic,"EIA-860, EIA-860M and EIA-923",202108,39.560833,-76.055278,POINT Z (-76.05527800000003 39.56083300000015 0),
58015,IKEA College Park 411,IKEA Property Inc,57389,Commercial Non-CHP,College Park,Prince Georges,Maryland,20740,10100 Baltimore Ave.,solar,1,1,1,Solar = 1 MW,Solar Photovoltaic,"EIA-860, EIA-860M and EIA-923",202108,39.021,-76.926,POINT Z (-76.92600000000002 39.021000000000136 0),
58016,IKEA Westhampton 061,IKEA Property Inc,57389,Commercial Non-CHP,Westampton,Burlington,New Jersey,8060,100 IKEA Drive,solar,1.8,1.8,1.8,Solar = 1.8 MW,Solar Photovoltaic,"EIA-860, EIA-860M and EIA-923",202108,40.013889,-74.853611,POINT Z (-74.85361099999999 40.01388900000015 0),
58017,Copper Mountain Solar 2,Consolidated Edison Development Inc.,56769,IPP Non-CHP,Boulder City,Clark,Nevada,89005,585 Eldorado Valley Drive,solar,154,154,154,Solar = 154 MW,Solar Photovoltaic,"EIA-860, EIA-860M and EIA-923",202108,35.786389,-114.962778,POINT Z (-114.96277800000009 35.78638900000006 0),
58027,SunE CPS2 LLC,SunE CPS2 LLC,57403,IPP Non-CHP,San Antonio,Bexar,Texas,78221,3580 Valley Rd,solar,10,9.9,9.9,Solar = 9.9 MW,Solar Photovoltaic,"EIA-860, EIA-860M and EIA-923",202108,29.245,-98.418333,POINT Z (-98.41833300000008 29.245000000000157 0),
58028,IKEA Tejon 345,IKEA Property Inc,57389,Commercial Non-CHP,Lebec,Kern,California,93243,4104 Industrial Park Drive,solar,1.5,1.5,1.5,Solar = 1.5 MW,Solar Photovoltaic,"EIA-860, EIA-860M and EIA-923",202108,34.975278,-118.946944,POINT Z (-118.9469440000001 34.97527800000015 0),
58029,Constellation New Energy Inc,Constellation Solar Federal LLC,57311,IPP Non-CHP,Medford,Burlington,New Jersey,1040,7-12 Reeves Station Road,solar,3.9,3.9,3.9,Solar = 3.9 MW,Solar Photovoltaic,"EIA-860, EIA-860M and EIA-923",202108,39.928889,-74.818056,POINT Z (-74.81805600000004 39.92888900000005 0),
58030,Reeves Station Rd East,NJR Clean Energy Ventures Corporation,56990,IPP Non-CHP,Medford,Burlington,New Jersey,8055,27 Reeves Station Road,solar,5.4,5.4,5.4,Solar = 5.4 MW,Solar Photovoltaic,"EIA-860, EIA-860M and EIA-923",202108,39.928333,-74.814444,POINT Z (-74.81444400000002 39.92833300000011 0),
58032,Padelford Solar,Consolidated Edison Solutions Inc,57365,IPP Non-CHP,Berkley,Bristol,Massachusetts,2779,32 Padelford Street,solar,2.2,2.2,2.2,Solar = 2.2 MW,Solar Photovoltaic,"EIA-860, EIA-860M and EIA-923",202108,41.853333,-71.065,POINT Z (-71.06500000000001 41.8533330000001 0),
58034,Nickel 1 Solar Facility,"Altus Power America Management, LLC",60281,IPP Non-CHP,Lost Hills,Kern,California,93249,20732 GP Road,solar,1.5,1.5,1.5,Solar = 1.5 MW,Solar Photovoltaic,"EIA-860, EIA-860M and EIA-923",202108,35.647295,-119.716512,POINT Z (-119.71651200000008 35.647295000000064 0),
58036,Riverside Renewable Energy LLC,Riverside Renewable Energy,57407,IPP Non-CHP,Gloucester City,Camden,New Jersey,8003,101 S King Street,solar,7.5,7.5,7.5,Solar = 7.5 MW,Solar Photovoltaic,"EIA-860, EIA-860M and EIA-923",202108,39.903056,-75.125833,POINT Z (-75.12583299999999 39.903056000000106 0),
58037,Buckeye Union HS District 201,Constellation Solar Arizona LLC,57408,IPP Non-CHP,Buckeye,Maricopa,Arizona,85326,3000 South Apache Road,solar,3.3,3.3,3.3,Solar = 3.3 MW,Solar Photovoltaic,"EIA-860, EIA-860M and EIA-923",202108,33.419167,-112.576111,POINT Z (-112.57611100000007 33.419167000000115 0),
58039,Axium Modesto Solar,Axium US Solar Holdings LLC,60898,IPP Non-CHP,Modesto,Stanislaus,California,95356,6800 McHenry Avenue,solar,25,25,25,Solar = 25 MW,Solar Photovoltaic,"EIA-860, EIA-860M and EIA-923",202108,37.734167,-120.995556,POINT Z (-120.99555600000006 37.734167000000106 0),
58040,United Stationers Supply Solar Electric,CVI CleanCapital Solar 4 LLC,63068,Commercial Non-CHP,Cranbury,Middlesex,New Jersey,8512,100 Liberty Way,solar,2.8,2.8,2.8,Solar = 2.8 MW,Solar Photovoltaic,"EIA-860, EIA-860M and EIA-923",202108,40.320556,-74.501667,POINT Z (-74.50166700000003 40.32055600000013 0),
58042,Black Mountain Solar LLC,Black Mountain Solar LLC,57413,IPP Non-CHP,Golden Valley,Mohave,Arizona,86413,7025 S Yuma Road,solar,9,9,9,Solar = 9 MW,Solar Photovoltaic,"EIA-860, EIA-860M and EIA-923",202108,35.0227,-114.1627,POINT Z (-114.1627000000001 35.022700000000064 0),
58049,Jordache Enterprises Solar,Jordache Enterprises,57420,Commercial Non-CHP,South Plainfield,Middlesex,New Jersey,7080,200 South Helen St.,solar,1.3,1.3,1.3,Solar = 1.3 MW,Solar Photovoltaic,"EIA-860, EIA-860M and EIA-923",202108,40.55569,-74.40836,POINT Z (-74.40836 40.55569000000011 0),
58062,Imperial Valley Solar Company 1 LLC,Imperial Irrigation District,9216,Electric Utility,Niland,Imperial,California,92257,440 East Beal Road,solar,23,23,23,Solar = 23 MW,Solar Photovoltaic,"EIA-860, EIA-860M and EIA-923",202108,33.245833,-115.496667,POINT Z (-115.49666700000009 33.24583300000009 0),
58064,Laredo Bus Facility Solar Canopies,MARTA,57441,Commercial Non-CHP,Decatur,DeKalb,Georgia,30030,277 Laredo Dr.,solar,1,1,1,Solar = 1 MW,Solar Photovoltaic,"EIA-860, EIA-860M and EIA-923",202108,33.783333,-84.267778,POINT Z (-84.26777800000005 33.78333300000007 0),
58068,SunE CPS1 LLC,SunE CPS1 LLC,57419,IPP Non-CHP,San Antonio,Bexar,Texas,78221,4000 Rabel Road,solar,10,9.9,9.9,Solar = 9.9 MW,Solar Photovoltaic,"EIA-860, EIA-860M and EIA-923",202108,29.245,-98.418333,POINT Z (-98.41833300000008 29.245000000000157 0),
